{"type":"FeatureCollection","features":[{"type":"Feature","geometry":{"type":"Point","coordinates":[121.0077732,6.0579815]},"properties":{"id":"way/963279077","osmId":963279077,"facilityType":"covered_court","name":"Bus-bus Covered Court","address":"Bus-bus Covered Court, Princess Tarhata Road, Kasulutan Village, Jolo, Sulu, Zamboanga Peninsula, 7400, Philippines","capacity":null,"hazardTypes":null}},{"type":"Feature","geometry":{"type":"Point","coordinates":[121.1320799,6.0781895]},"properties":{"id":"way/864921254","osmId":864921254,"facilityType":"covered_court","name":"Taung Covered Court","address":"Taung Covered Court, Taung, Patikul, Sulu, Zamboanga Peninsula, Philippines","capacity":null,"hazardTypes":null}},{"type":"Feature","geometry":{"type":"Point","coordinates":[121.3134972,5.9692052]},"properties":{"id":"way/374160909","osmId":374160909,"facilityType":"covered_court","name":"Tubig-Puti Covered Court","address":"Tubig-Puti Covered Court, Caumpang Street, Tandu Bato, Sulu, Zamboanga Peninsula, Philippines","capacity":null,"hazardTypes":null}},{"type":"Feature","geometry":{"type":"Point","coordinates":[124.2026527,6.2226701]},"properties":{"id":"way/677554562","osmId":677554562,"facilityType":"covered_court","name":"Badiangon Covered Court","address":"Badiangon Covered Court, Purok 4, Palimbang, Sultan Kudarat, Soccsksargen, Philippines","capacity":null,"hazardTypes":["earthquake"]}},{"type":"Feature","geometry":{"type":"Point","coordinates":[124.3741979,6.111612]},"properties":{"id":"way/984681344","osmId":984681344,"facilityType":"covered_court","name":"Pinoy Covered Court","address":"Pinoy Covered Court, Sarangani-Sultan Kudarat Coastal Road, Liw-liwa, Takal, Pinol, Sarangani, Soccsksargen, Philippines","capacity":null,"hazardTypes":null}},{"type":"Feature","geometry":{"type":"Point","coordinates":[124.2573234,6.1701951]},"properties":{"id":"way/1211739015","osmId":1211739015,"facilityType":"covered_court","name":"Madrasa Datu Maturaja Al-Islamie Covered Court","address":"Madrasa Datu Maturaja Al-Islamie Covered Court, Mangga, Palimbang, Sultan Kudarat, Soccsksargen, Philippines","capacity":null,"hazardTypes":["flood"]}},{"type":"Feature","geometry":{"type":"Point","coordinates":[124.9114066,6.3738655]},"properties":{"id":"way/700192668","osmId":700192668,"facilityType":"covered_court","name":"Palian Covered Court","address":"Palian Covered Court, General Santos-Koronadal Highway, Sultan Ebrahim, Maunlad, Palian, Tupi, South Cotabato, Soccsksargen, Philippines","capacity":null,"hazardTypes":null}},{"type":"Feature","geometry":{"type":"Point","coordinates":[124.9202387,6.3639689]},"properties":{"id":"way/776693597","osmId":776693597,"facilityType":"covered_court","name":"Crossing Rubber Covered Court","address":"Crossing Rubber Covered Court, General Santos-Koronadal Highway, Maunlad, Crossing Rubber, Tupi, South Cotabato, Soccsksargen, 9505, Philippines","capacity":null,"hazardTypes":null}},{"type":"Feature","geometry":{"type":"Point","coordinates":[124.8871022,6.3700364]},"properties":{"id":"way/858114383","osmId":858114383,"facilityType":"covered_court","name":"Tubeng Covered Court","address":"Tubeng Covered Court, General Santos-Koronadal Highway, Sultan Ebrahim, Maunlad, Palian, Tupi, South Cotabato, Soccsksargen, Philippines","capacity":null,"hazardTypes":null}},{"type":"Feature","geometry":{"type":"Point","coordinates":[124.9516046,6.3389516]},"properties":{"id":"way/950304434","osmId":950304434,"facilityType":"covered_court","name":"Poblacion Covered Court","address":"Poblacion Covered Court, L. V. Balayon Sr. Street, Purok 5, Bunao, Tupi, South Cotabato, Soccsksargen, 9505, Philippines","capacity":null,"hazardTypes":null}},{"type":"Feature","geometry":{"type":"Point","coordinates":[124.6382113,6.3737869]},"properties":{"id":"way/698698337","osmId":698698337,"facilityType":"covered_court","name":"Upper Sepaka Covered Court","address":"Upper Sepaka Covered Court, Modon-Kiantay Road, Surallah, South Cotabato, Soccsksargen, 9512, Philippines","capacity":null,"hazardTypes":null}},{"type":"Feature","geometry":{"type":"Point","coordinates":[124.8226823,6.2439376]},"properties":{"id":"way/792237522","osmId":792237522,"facilityType":"covered_court","name":"Lemsnolon Covered Court","address":"Lemsnolon Covered Court, Lemsnolon Road, Mangga, Santan, Lemsnolon, T'Boli, South Cotabato, Soccsksargen, Philippines","capacity":null,"hazardTypes":null}},{"type":"Feature","geometry":{"type":"Point","coordinates":[124.9329257,6.254209]},"properties":{"id":"way/979737026","osmId":979737026,"facilityType":"covered_court","name":"Lambangan Covered Court","address":"Lambangan Covered Court, El Oma Lufo Road, Polonuling, Tupi, South Cotabato, Soccsksargen, 9505, Philippines","capacity":null,"hazardTypes":null}},{"type":"Feature","geometry":{"type":"Point","coordinates":[124.9076424,5.8720393]},"properties":{"id":"way/677209288","osmId":677209288,"facilityType":"covered_court","name":"Lumatil Covered Court","address":"Lumatil Covered Court, Sarangani-Sultan Kudarat Coastal Road, Dumapil, Lumatil, Sarangani, Soccsksargen, 9502, Philippines","capacity":null,"hazardTypes":null}},{"type":"Feature","geometry":{"type":"Point","coordinates":[125.2328728,6.1562731]},"properties":{"id":"way/471658819","osmId":471658819,"facilityType":"covered_court","name":"Ligaya Covered Court","address":"Ligaya Covered Court, Narra Street, Ligaya, General Santos, Soccsksargen, 9500, Philippines","capacity":null,"hazardTypes":null}},{"type":"Feature","geometry":{"type":"Point","coordinates":[125.2485515,6.1614476]},"properties":{"id":"way/561944544","osmId":561944544,"facilityType":"covered_court","name":"Tokawal Covered Court","address":"Tokawal Covered Court, Alabel-Malungon Road, Purok 2, Tokawal, Sarangani, Soccsksargen, 9501, Philippines","capacity":null,"hazardTypes":null}},{"type":"Feature","geometry":{"type":"Point","coordinates":[125.4694566,6.3648812]},"properties":{"id":"way/949134973","osmId":949134973,"facilityType":"covered_court","name":"Kilalag Covered Court","address":"Kilalag Covered Court, Demoloc-Little Baguio-Alabel Road, Kilalag, Malita, Davao Occidental, Davao Region, 8012, Philippines","capacity":null,"hazardTypes":null}},{"type":"Feature","geometry":{"type":"Point","coordinates":[124.988026,6.061215]},"properties":{"id":"way/695641847","osmId":695641847,"facilityType":"covered_court","name":"Maan Covered Court","address":"Maan Covered Court, General Santos-T'Boli Road, Datal Salvan, T'Boli, South Cotabato, Soccsksargen, Philippines","capacity":null,"hazardTypes":null}},{"type":"Feature","geometry":{"type":"Point","coordinates":[125.0044014,5.9126391]},"properties":{"id":"way/884231851","osmId":884231851,"facilityType":"covered_court","name":"Amsipit Covered Court","address":"Amsipit Covered Court, Kyumad, Amsipit, Sarangani, Soccsksargen, 9502, Philippines","capacity":null,"hazardTypes":null}},{"type":"Feature","geometry":{"type":"Point","coordinates":[125.3038385,6.2892984]},"properties":{"id":"way/953102554","osmId":953102554,"facilityType":"covered_court","name":"Malinis Covered Court","address":"Malinis Covered Court, Alabel-Malungon Road, Malinis, Malungon, Sarangani, Soccsksargen, 9503, Philippines","capacity":null,"hazardTypes":null}},{"type":"Feature","geometry":{"type":"Point","coordinates":[125.380651,6.3741853]},"properties":{"id":"way/827322928","osmId":827322928,"facilityType":"covered_court","name":"Panamin Covered Court","address":"Panamin Covered Court, Panamin Road, Panamin, Malungon, Sarangani, Soccsksargen, 9503, Philippines","capacity":null,"hazardTypes":null}},{"type":"Feature","geometry":{"type":"Point","coordinates":[125.6971888,6.1979426]},"properties":{"id":"way/502535559","osmId":502535559,"facilityType":"covered_court","name":"Don Marcelino Covered Court","address":"Don Marcelino Covered Court, Davao-Sarangani Coastal Road, Laac, Kinanga, Don Marcelino, Davao Occidental, Davao Region, 8013, Philippines","capacity":null,"hazardTypes":null}},{"type":"Feature","geometry":{"type":"Point","coordinates":[122.0802181,6.9132892]},"properties":{"id":"way/269769809","osmId":269769809,"facilityType":"covered_court","name":"Covered Court","address":"Covered Court, Don Alfaro Street, Tetuan, Santa Catalina, Zamboanga City, Zamboanga Peninsula, 7000, Philippines","capacity":null,"hazardTypes":null}},{"type":"Feature","geometry":{"type":"Point","coordinates":[124.2421332,7.1934978]},"properties":{"id":"way/471673428","osmId":471673428,"facilityType":"covered_court","name":"DepEd Covered Court","address":"DepEd Covered Court, Sinsuat Avenue and Bishop Mongeau Circumferential Road, Rosary Heights 8, Cotabato City, Bangsamoro, 9600, Philippines","capacity":null,"hazardTypes":null}},{"type":"Feature","geometry":{"type":"Point","coordinates":[124.8171679,6.4880708]},"properties":{"id":"way/601884086","osmId":601884086,"facilityType":"covered_court","name":"PSHS-SRC Covered Court","address":"PSHS-SRC Covered Court, PSHS-SRC Access Road, Bulak, Paraiso, Koronadal, South Cotabato, Soccsksargen, 9506, Philippines","capacity":null,"hazardTypes":null}},{"type":"Feature","geometry":{"type":"Point","coordinates":[124.9041446,6.5539145]},"properties":{"id":"way/650046739","osmId":650046739,"facilityType":"covered_court","name":"San Jose Covered Court","address":"San Jose Covered Court, Santo Niño-San Jose Road, San Jose, Koronadal, South Cotabato, Soccsksargen, Philippines","capacity":null,"hazardTypes":null}},{"type":"Feature","geometry":{"type":"Point","coordinates":[124.8633051,6.5249788]},"properties":{"id":"way/827191252","osmId":827191252,"facilityType":"covered_court","name":"Namnama Covered Court","address":"Namnama Covered Court, Magsaysay, Namnama, Koronadal, South Cotabato, Soccsksargen, 9506, Philippines","capacity":null,"hazardTypes":null}},{"type":"Feature","geometry":{"type":"Point","coordinates":[124.856625,6.4947482]},"properties":{"id":"way/856557978","osmId":856557978,"facilityType":"covered_court","name":"Zone II Covered Court","address":"Zone II Covered Court, Balmores Boulevard, Kahirup, Santo Niño, Koronadal, South Cotabato, Soccsksargen, 9506, Philippines","capacity":null,"hazardTypes":null}},{"type":"Feature","geometry":{"type":"Point","coordinates":[124.6647099,6.597812]},"properties":{"id":"way/685855388","osmId":685855388,"facilityType":"covered_court","name":"Rajah Muda Covered Court","address":"Rajah Muda Covered Court, Purok 3, Rajah Muda, Sultan Kudarat, Soccsksargen, 9800, Philippines","capacity":null,"hazardTypes":null}},{"type":"Feature","geometry":{"type":"Point","coordinates":[124.7370185,6.7631664]},"properties":{"id":"way/843643697","osmId":843643697,"facilityType":"covered_court","name":"Katico Covered Court","address":"Katico Covered Court, President Quirino, Katico, Sultan Kudarat, Soccsksargen, 9618, Philippines","capacity":null,"hazardTypes":null}},{"type":"Feature","geometry":{"type":"Point","coordinates":[124.7395801,6.7012326]},"properties":{"id":"way/335698257","osmId":335698257,"facilityType":"covered_court","name":"Poblacion Covered Court","address":"Poblacion Covered Court, Tacurong-President Quirino National Highway, Poblacion, President Quirino, Sultan Kudarat, Soccsksargen, 9804, Philippines","capacity":null,"hazardTypes":null}},{"type":"Feature","geometry":{"type":"Point","coordinates":[124.887331,6.7772866]},"properties":{"id":"way/1285234272","osmId":1285234272,"facilityType":"covered_court","name":"Damawato Covered Court","address":"Damawato Covered Court, Tulunan-Datu Paglas National Highway, Malendeg, Damawato, Maguindanao del Sur, Bangsamoro, 9617, Philippines","capacity":null,"hazardTypes":null}},{"type":"Feature","geometry":{"type":"Point","coordinates":[124.5345812,7.1933201]},"properties":{"id":"way/1363195690","osmId":1363195690,"facilityType":"covered_court","name":"NDMC ETD Covered Court","address":"NDMC ETD Covered Court, Jose Rizal Street, Poblacion 3, Midsayap, North Cotabato, Soccsksargen, 9410, Philippines","capacity":null,"hazardTypes":null}},{"type":"Feature","geometry":{"type":"Point","coordinates":[124.5362408,7.1859652]},"properties":{"id":"way/820435562","osmId":820435562,"facilityType":"covered_court","name":"Poblacion 2 Covered Court","address":"Poblacion 2 Covered Court, Bonifacio Street, Poblacion 2, Midsayap, North Cotabato, Soccsksargen, 9410, Philippines","capacity":null,"hazardTypes":null}},{"type":"Feature","geometry":{"type":"Point","coordinates":[124.7490858,7.0768068]},"properties":{"id":"way/1097784594","osmId":1097784594,"facilityType":"covered_court","name":"Datu Montawal Covered Court","address":"Datu Montawal Covered Court, Davao-Cotabato National Highway, Datu Montawal, Maguindanao del Sur, Bangsamoro, 9631, Philippines","capacity":null,"hazardTypes":null}},{"type":"Feature","geometry":{"type":"Point","coordinates":[124.8314085,7.1139991]},"properties":{"id":"way/1186119365","osmId":1186119365,"facilityType":"covered_court","name":"ULS Convention Covered Basketball Court","address":"ULS Convention Covered Basketball Court, Bai Matabay Plang Avenue, Rio Grande, Kabacan, North Cotabato, Soccsksargen, 9407, Philippines","capacity":null,"hazardTypes":null}},{"type":"Feature","geometry":{"type":"Point","coordinates":[124.9611831,6.8424165]},"properties":{"id":"way/742337527","osmId":742337527,"facilityType":"covered_court","name":"Tuburan Covered Court","address":"Tuburan Covered Court, New Caridad-La Esperanza Road, Tuburan, Tulunan, North Cotabato, Soccsksargen, 9403, Philippines","capacity":null,"hazardTypes":null}},{"type":"Feature","geometry":{"type":"Point","coordinates":[124.9332918,6.8007228]},"properties":{"id":"way/961164042","osmId":961164042,"facilityType":"covered_court","name":"Kanibong Covered Court","address":"Kanibong Covered Court, Purok 1, Minapan, Tulunan, North Cotabato, Soccsksargen, 9403, Philippines","capacity":null,"hazardTypes":null}},{"type":"Feature","geometry":{"type":"Point","coordinates":[124.7746694,6.4292861]},"properties":{"id":"way/170415178","osmId":170415178,"facilityType":"covered_court","name":"Reyes Covered Court","address":"Reyes Covered Court, Koronadal-Cotabato Highway, Banga, South Cotabato, Soccsksargen, 9511, Philippines","capacity":null,"hazardTypes":null}},{"type":"Feature","geometry":{"type":"Point","coordinates":[124.9669229,6.9580268]},"properties":{"id":"way/1368611942","osmId":1368611942,"facilityType":"covered_court","name":"Calunasan Covered Court","address":"Calunasan Covered Court, Calunasan-New Esperanza Road, Calunasan, M'lang, North Cotabato, Soccsksargen, 9402, Philippines","capacity":null,"hazardTypes":null}},{"type":"Feature","geometry":{"type":"Point","coordinates":[124.9341441,6.9637667]},"properties":{"id":"way/1368611929","osmId":1368611929,"facilityType":"covered_court","name":"Libo-o Covered Court","address":"Libo-o Covered Court, Kidapawan-M'lang Road, Libo-o, M'lang, North Cotabato, Soccsksargen, 9402, Philippines","capacity":null,"hazardTypes":null}},{"type":"Feature","geometry":{"type":"Point","coordinates":[124.8784181,6.9909709]},"properties":{"id":"way/1368616133","osmId":1368616133,"facilityType":"covered_court","name":"New Antique Covered Court","address":"New Antique Covered Court, Matalam-M'lang-Bagontapay Road, Lika, M'lang, North Cotabato, Soccsksargen, 9402, Philippines","capacity":null,"hazardTypes":null}},{"type":"Feature","geometry":{"type":"Point","coordinates":[124.8109144,6.5291165]},"properties":{"id":"way/858741925","osmId":858741925,"facilityType":"covered_court","name":"San Felipe Covered Court","address":"San Felipe Covered Court, San Felipe-New Lambunao Road, Purok 3, Tantangan, South Cotabato, Soccsksargen, 9510, Philippines","capacity":null,"hazardTypes":null}},{"type":"Feature","geometry":{"type":"Point","coordinates":[124.9176154,7.085934]},"properties":{"id":"way/1364541085","osmId":1364541085,"facilityType":"covered_court","name":"Manubuan Covered Court","address":"Manubuan Covered Court, Davao-Cotabato National Highway, Azucena C, Manubuan, Matalam, North Cotabato, Soccsksargen, 9406, Philippines","capacity":null,"hazardTypes":null}},{"type":"Feature","geometry":{"type":"Point","coordinates":[125.4002336,7.1746479]},"properties":{"id":"way/976309036","osmId":976309036,"facilityType":"covered_court","name":"Baguio District Covered Court","address":"Baguio District Covered Court, Calinan-Baguio Road, Dahlia, Baguio District, Davao City, Davao Region, 8000, Philippines","capacity":null,"hazardTypes":null}},{"type":"Feature","geometry":{"type":"Point","coordinates":[125.3456423,7.1147032]},"properties":{"id":"way/519896997","osmId":519896997,"facilityType":"covered_court","name":"Carmen Covered Court","address":"Carmen Covered Court, Baguio-Cadalian-Carmen Road, Malalan, Macatabo, Baguio District, Davao City, Davao Region, 8000, Philippines","capacity":null,"hazardTypes":null}},{"type":"Feature","geometry":{"type":"Point","coordinates":[125.4859914,7.0416796]},"properties":{"id":"way/160210415","osmId":160210415,"facilityType":"covered_court","name":"Tina Luis Roble Covered Court","address":"Tina Luis Roble Covered Court, Lubogan-Alambre Road, Purok 3-C, Lubogan, Toril District, Davao City, Davao Region, 8000, Philippines","capacity":null,"hazardTypes":null}},{"type":"Feature","geometry":{"type":"Point","coordinates":[125.3736291,7.1703307]},"properties":{"id":"way/993643603","osmId":993643603,"facilityType":"covered_court","name":"Tawan -Tawan Covered Court","address":"Tawan -Tawan Covered Court, Baguio-Cadalian-Carmen Road, Purok 7, Upper Cadalian, Baguio District, Davao City, Davao Region, 8000, Philippines","capacity":null,"hazardTypes":null}},{"type":"Feature","geometry":{"type":"Point","coordinates":[125.4810245,7.1413836]},"properties":{"id":"way/1060515991","osmId":1060515991,"facilityType":"covered_court","name":"Los Amigos Covered Court","address":"Los Amigos Covered Court, Davao-Bukidnon Road, Purok 9, Tugbok District, Davao City, Davao Region, 8000, Philippines","capacity":null,"hazardTypes":null}},{"type":"Feature","geometry":{"type":"Point","coordinates":[125.4311922,7.1259114]},"properties":{"id":"way/519896832","osmId":519896832,"facilityType":"covered_court","name":"Tagakpan Covered Court","address":"Tagakpan Covered Court, San Francisco, Tugbok District, Davao City, Davao Region, 8000, Philippines","capacity":null,"hazardTypes":null}},{"type":"Feature","geometry":{"type":"Point","coordinates":[125.3558234,7.0975937]},"properties":{"id":"way/916015138","osmId":916015138,"facilityType":"covered_court","name":"Upper Tamayong Covered Court","address":"Upper Tamayong Covered Court, Tamayong Road, Purok 5, Tamayong, Calinan District, Davao City, Davao Region, Philippines","capacity":null,"hazardTypes":null}},{"type":"Feature","geometry":{"type":"Point","coordinates":[125.4129938,7.0243805]},"properties":{"id":"way/1366520546","osmId":1366520546,"facilityType":"covered_court","name":"Uguis Covered Court","address":"Uguis Covered Court, Uguis, Toril District, Davao City, Davao Region, 8000, Philippines","capacity":null,"hazardTypes":null}},{"type":"Feature","geometry":{"type":"Point","coordinates":[125.4709464,7.0601256]},"properties":{"id":"way/989705333","osmId":989705333,"facilityType":"covered_court","name":"Alambre Covered Court","address":"Alambre Covered Court, Lubogan-Alambre Road, Purok 3-C, Lubogan, Toril District, Davao City, Davao Region, 8000, Philippines","capacity":null,"hazardTypes":null}},{"type":"Feature","geometry":{"type":"Point","coordinates":[125.4725988,7.1650369]},"properties":{"id":"way/146616602","osmId":146616602,"facilityType":"covered_court","name":"Riverside Covered Court","address":"Riverside Covered Court, Waling-Waling Street, Purok 2, Calinan District, Davao City, Davao Region, 8000, Philippines","capacity":null,"hazardTypes":null}},{"type":"Feature","geometry":{"type":"Point","coordinates":[125.4916798,7.1326087]},"properties":{"id":"way/150197356","osmId":150197356,"facilityType":"covered_court","name":"Ula Covered Court","address":"Ula Covered Court, Sampaguita Street, Purok 1, Tugbok District, Davao City, Davao Region, 8000, Philippines","capacity":null,"hazardTypes":null}},{"type":"Feature","geometry":{"type":"Point","coordinates":[125.4469168,7.0249751]},"properties":{"id":"way/1366518712","osmId":1366518712,"facilityType":"covered_court","name":"Carnagan Covered Court","address":"Carnagan Covered Court, Carnagan, Toril District, Davao City, Davao Region, 8000, Philippines","capacity":null,"hazardTypes":null}},{"type":"Feature","geometry":{"type":"Point","coordinates":[125.4123438,7.1581791]},"properties":{"id":"way/519897123","osmId":519897123,"facilityType":"covered_court","name":"Cawayan Covered Court","address":"Cawayan Covered Court, Tamayong Road, Purok 11, Ecal, Calinan District, Davao City, Davao Region, 8000, Philippines","capacity":null,"hazardTypes":null}},{"type":"Feature","geometry":{"type":"Point","coordinates":[125.4956005,7.078297]},"properties":{"id":"way/161964174","osmId":161964174,"facilityType":"covered_court","name":"Bago Oshiro Covered Court","address":"Bago Oshiro Covered Court, Bago Oshiro Road, Purok 2, Santo Niño, Tugbok District, Davao City, Davao Region, 8000, Philippines","capacity":null,"hazardTypes":null}},{"type":"Feature","geometry":{"type":"Point","coordinates":[125.4951551,7.0231956]},"properties":{"id":"way/518827883","osmId":518827883,"facilityType":"covered_court","name":"Crossing Bayabas Covered Court","address":"Crossing Bayabas Covered Court, Neptune Street, Purok 1, Crossing Bayabas, Toril District, Davao City, Davao Region, 8025, Philippines","capacity":null,"hazardTypes":null}},{"type":"Feature","geometry":{"type":"Point","coordinates":[125.374144,7.1469871]},"properties":{"id":"way/1333093387","osmId":1333093387,"facilityType":"covered_court","name":"Cadalian Covered Court","address":"Cadalian Covered Court, Purok 5, Baguio District, Davao City, Davao Region, 8000, Philippines","capacity":null,"hazardTypes":null}},{"type":"Feature","geometry":{"type":"Point","coordinates":[125.4870345,7.0845369]},"properties":{"id":"way/542682282","osmId":542682282,"facilityType":"covered_court","name":"Kalimudan Covered Court","address":"Kalimudan Covered Court, Student Center Lane, San Gabriel, Tugbok District, Davao City, Davao Region, 8000, Philippines","capacity":null,"hazardTypes":null}},{"type":"Feature","geometry":{"type":"Point","coordinates":[125.4865619,7.0159121]},"properties":{"id":"way/518827873","osmId":518827873,"facilityType":"covered_court","name":"Marapangi Covered Court","address":"Marapangi Covered Court, Marapangi Road, Santo Niño, Marapangi, Toril District, Davao City, Davao Region, 8000, Philippines","capacity":null,"hazardTypes":null}},{"type":"Feature","geometry":{"type":"Point","coordinates":[125.4662985,7.1335273]},"properties":{"id":"way/139634979","osmId":139634979,"facilityType":"covered_court","name":"Balingaeng Covered Court","address":"Balingaeng Covered Court, Purok 3, Tugbok District, Davao City, Davao Region, 8000, Philippines","capacity":null,"hazardTypes":null}},{"type":"Feature","geometry":{"type":"Point","coordinates":[125.4782426,7.035468]},"properties":{"id":"way/1206141585","osmId":1206141585,"facilityType":"covered_court","name":"Bato Covered Court","address":"Bato Covered Court, Purok 7, Bato, Toril District, Davao City, Davao Region, 8000, Philippines","capacity":null,"hazardTypes":null}},{"type":"Feature","geometry":{"type":"Point","coordinates":[125.3896136,7.1929346]},"properties":{"id":"way/993622155","osmId":993622155,"facilityType":"covered_court","name":"Wines Covered Court","address":"Wines Covered Court, Mangga, Baguio District, Davao City, Davao Region, 8000, Philippines","capacity":null,"hazardTypes":null}},{"type":"Feature","geometry":{"type":"Point","coordinates":[125.414026,7.1047261]},"properties":{"id":"way/1258462244","osmId":1258462244,"facilityType":"covered_court","name":"Manuel Guainga Covered Court","address":"Manuel Guainga Covered Court, Purok 1, Tugbok District, Davao City, Davao Region, 8000, Philippines","capacity":null,"hazardTypes":null}},{"type":"Feature","geometry":{"type":"Point","coordinates":[125.4379881,7.0863962]},"properties":{"id":"way/860575331","osmId":860575331,"facilityType":"covered_court","name":"Camansi Covered Court","address":"Camansi Covered Court, Purok 2, Toril District, Davao City, Davao Region, 8000, Philippines","capacity":null,"hazardTypes":null}},{"type":"Feature","geometry":{"type":"Point","coordinates":[125.397439,7.0326063]},"properties":{"id":"way/538858557","osmId":538858557,"facilityType":"covered_court","name":"Eden Covered Court","address":"Eden Covered Court, Bayabas-Eden Road, Purok 4, Toril District, Davao City, Davao Region, 8000, Philippines","capacity":null,"hazardTypes":null}},{"type":"Feature","geometry":{"type":"Point","coordinates":[125.4411589,7.0672804]},"properties":{"id":"way/993639312","osmId":993639312,"facilityType":"covered_court","name":"Barangay Tagluno Covered Court","address":"Barangay Tagluno Covered Court, Tagluno Road, Purok 4, Toril District, Davao City, Davao Region, 8000, Philippines","capacity":null,"hazardTypes":null}},{"type":"Feature","geometry":{"type":"Point","coordinates":[125.4803004,7.1910793]},"properties":{"id":"way/506150862","osmId":506150862,"facilityType":"covered_court","name":"Talomo River Covered Court","address":"Talomo River Covered Court, Pangyan Road, Campo 2, Calinan District, Davao City, Davao Region, 8000, Philippines","capacity":null,"hazardTypes":null}},{"type":"Feature","geometry":{"type":"Point","coordinates":[125.4634002,7.1183775]},"properties":{"id":"way/160303085","osmId":160303085,"facilityType":"covered_court","name":"Barangay Angalan Covered Court","address":"Barangay Angalan Covered Court, Angalan Road, Talisay, Tugbok District, Davao City, Davao Region, 8000, Philippines","capacity":null,"hazardTypes":null}},{"type":"Feature","geometry":{"type":"Point","coordinates":[125.4908897,7.1815677]},"properties":{"id":"way/1370750608","osmId":1370750608,"facilityType":"covered_court","name":"Biao Joaquin Covered Court","address":"Biao Joaquin Covered Court, Purok 1, Biao Joaquin, Davao City, Davao Region, 8000, Philippines","capacity":null,"hazardTypes":null}},{"type":"Feature","geometry":{"type":"Point","coordinates":[125.4143417,7.0459745]},"properties":{"id":"way/845215816","osmId":845215816,"facilityType":"covered_court","name":"Barangay Tagurano Covered Court","address":"Barangay Tagurano Covered Court, Tagurano, Davao City, Davao Region, 8000, Philippines","capacity":null,"hazardTypes":null}},{"type":"Feature","geometry":{"type":"Point","coordinates":[125.4327089,7.1900791]},"properties":{"id":"way/989581666","osmId":989581666,"facilityType":"covered_court","name":"Malagos Covered Court","address":"Malagos Covered Court, Calinan-Baguio Road, Dahlia, Baguio District, Davao City, Davao Region, 8000, Philippines","capacity":null,"hazardTypes":null}},{"type":"Feature","geometry":{"type":"Point","coordinates":[125.4792546,6.9794891]},"properties":{"id":"way/1075712345","osmId":1075712345,"facilityType":"covered_court","name":"Binugao Covered Court","address":"Binugao Covered Court, MacArthur Highway, Central 1, Toril District, Davao City, Davao Region, 8000, Philippines","capacity":null,"hazardTypes":null}},{"type":"Feature","geometry":{"type":"Point","coordinates":[125.4281448,7.0015338]},"properties":{"id":"way/389006799","osmId":389006799,"facilityType":"covered_court","name":"Catigan Covered Court","address":"Catigan Covered Court, Sirawan-Catigan Road, Riverside, Acacia, Toril District, Davao City, Davao Region, 8000, Philippines","capacity":null,"hazardTypes":null}},{"type":"Feature","geometry":{"type":"Point","coordinates":[125.4279542,6.9719279]},"properties":{"id":"way/157551743","osmId":157551743,"facilityType":"covered_court","name":"Barangay Baracatan Covered Court","address":"Barangay Baracatan Covered Court, Inawayan-Baracatan Road, Purok 6, Toril District, Davao City, Davao Region, 8000, Philippines","capacity":null,"hazardTypes":null}},{"type":"Feature","geometry":{"type":"Point","coordinates":[125.3793912,7.1323168]},"properties":{"id":"way/553907786","osmId":553907786,"facilityType":"covered_court","name":"Barangay Tamayong Covered Court","address":"Barangay Tamayong Covered Court, Tamayong Road, Purok 5, Tamayong, Calinan District, Davao City, Davao Region, Philippines","capacity":null,"hazardTypes":null}},{"type":"Feature","geometry":{"type":"Point","coordinates":[125.4142201,7.0829262]},"properties":{"id":"node/1227454007","osmId":1227454007,"facilityType":"covered_court","name":"Daliaon Plantation Covered Court","address":"Daliaon Plantation Covered Court, Daliaon Road, Purok 1, Baracayo, Toril District, Davao City, Davao Region, 8000, Philippines","capacity":null,"hazardTypes":null}},{"type":"Feature","geometry":{"type":"Point","coordinates":[125.4250223,7.0743081]},"properties":{"id":"node/1227443897","osmId":1227443897,"facilityType":"covered_court","name":"Barangay Tungkalan Covered Court","address":"Barangay Tungkalan Covered Court, Tungkalan Road, Toril District, Davao City, Davao Region, 8000, Philippines","capacity":null,"hazardTypes":null}},{"type":"Feature","geometry":{"type":"Point","coordinates":[125.2937364,6.7600574]},"properties":{"id":"way/692271432","osmId":692271432,"facilityType":"covered_court","name":"Colorado Covered Court","address":"Colorado Covered Court, Davao-Cotabato National Highway, Vanda, Colorado, Digos, Davao del Sur, Davao Region, 8002, Philippines","capacity":null,"hazardTypes":null}},{"type":"Feature","geometry":{"type":"Point","coordinates":[125.2763922,6.7913258]},"properties":{"id":"way/1281376619","osmId":1281376619,"facilityType":"covered_court","name":"Lungag Covered Court","address":"Lungag Covered Court, San Vicente-Kibao Road, Purok 2, Kibao, Digos, Davao del Sur, Davao Region, 8002, Philippines","capacity":null,"hazardTypes":null}},{"type":"Feature","geometry":{"type":"Point","coordinates":[125.3315095,6.7766993]},"properties":{"id":"way/980697743","osmId":980697743,"facilityType":"covered_court","name":"Raparan Covered Court","address":"Raparan Covered Court, Davao-Cotabato National Highway, Purok A1, Tres de Mayo, Matti, Digos, Davao del Sur, Davao Region, 8002, Philippines","capacity":null,"hazardTypes":null}},{"type":"Feature","geometry":{"type":"Point","coordinates":[125.3427242,6.9287477]},"properties":{"id":"way/1024185635","osmId":1024185635,"facilityType":"covered_court","name":"Kapatagan Covered Court","address":"Kapatagan Covered Court, Kapatagan Road, San Francisco, Zone 1, Kiagot, Digos, Davao del Sur, Davao Region, 8002, Philippines","capacity":null,"hazardTypes":null}},{"type":"Feature","geometry":{"type":"Point","coordinates":[125.5865591,7.1547164]},"properties":{"id":"way/846297202","osmId":846297202,"facilityType":"covered_court","name":"Covered Court","address":"Covered Court, Old Mandug Road, Coog, Buhangin District, Davao City, Davao Region, 8000, Philippines","capacity":null,"hazardTypes":null}},{"type":"Feature","geometry":{"type":"Point","coordinates":[126.0596681,6.9036126]},"properties":{"id":"way/208237653","osmId":208237653,"facilityType":"covered_court","name":"Barangay Limbahan Covered Court","address":"Barangay Limbahan Covered Court, President Diosdado P. Macapagal Highway, Limbahan, Lupon, Davao Oriental, Davao Region, 8207, Philippines","capacity":null,"hazardTypes":null}},{"type":"Feature","geometry":{"type":"Point","coordinates":[126.4240263,7.0844734]},"properties":{"id":"way/1075230956","osmId":1075230956,"facilityType":"covered_court","name":"Maganda Covered Court","address":"Maganda Covered Court, Surigao-Davao Coastal Road, Jovellar, Tarragona, Davao Oriental, Davao Region, 8201, Philippines","capacity":null,"hazardTypes":null}},{"type":"Feature","geometry":{"type":"Point","coordinates":[126.1102553,6.879072]},"properties":{"id":"way/841558517","osmId":841558517,"facilityType":"covered_court","name":"Dugmanon Barangay Covered Court","address":"Dugmanon Barangay Covered Court, Dugmanon, San Isidro, Davao Oriental, Davao Region, 8209, Philippines","capacity":null,"hazardTypes":null}},{"type":"Feature","geometry":{"type":"Point","coordinates":[126.1844545,6.9371136]},"properties":{"id":"way/408057627","osmId":408057627,"facilityType":"covered_court","name":"Badas Barangay Covered Court","address":"Badas Barangay Covered Court, Badas, Mati, Davao Oriental, Davao Region, 8200, Philippines","capacity":null,"hazardTypes":null}},{"type":"Feature","geometry":{"type":"Point","coordinates":[126.2950551,6.8457159]},"properties":{"id":"way/198885897","osmId":198885897,"facilityType":"covered_court","name":"Tamisan Covered Court","address":"Tamisan Covered Court, Tamisan, Mati, Davao Oriental, Davao Region, 8200, Philippines","capacity":null,"hazardTypes":null}},{"type":"Feature","geometry":{"type":"Point","coordinates":[126.3312513,6.8015227]},"properties":{"id":"way/651370472","osmId":651370472,"facilityType":"covered_court","name":"Lawigan Covered Court","address":"Lawigan Covered Court, Dahican-Lawigan Road, Dama de Noche, Dos, Lawigan, Mati, Davao Oriental, Davao Region, 8200, Philippines","capacity":null,"hazardTypes":null}},{"type":"Feature","geometry":{"type":"Point","coordinates":[126.0870313,6.6155588]},"properties":{"id":"way/662797648","osmId":662797648,"facilityType":"covered_court","name":"Don A. Chicote Covered Court","address":"Don A. Chicote Covered Court, Tibanban-Lavigan Road, Don Aurelio Chicote, Governor Generoso, Davao Oriental, Davao Region, 8210, Philippines","capacity":null,"hazardTypes":null}},{"type":"Feature","geometry":{"type":"Point","coordinates":[126.093265,6.6774532]},"properties":{"id":"way/382388042","osmId":382388042,"facilityType":"covered_court","name":"Manuel Roxas Barangay Covered Court","address":"Manuel Roxas Barangay Covered Court, Manikling-Governor Generoso Road, Eden, Manuel Roxas, Governor Generoso, Davao Oriental, Davao Region, 8210, Philippines","capacity":null,"hazardTypes":null}},{"type":"Feature","geometry":{"type":"Point","coordinates":[122.2365832,7.5442058]},"properties":{"id":"way/1298511890","osmId":1298511890,"facilityType":"covered_court","name":"Guban Covered Court","address":"Guban Covered Court, Tungawan-Sirawai Road, Guban, Zamboanga del Norte, Zamboanga Peninsula, Philippines","capacity":null,"hazardTypes":null}},{"type":"Feature","geometry":{"type":"Point","coordinates":[122.3567987,7.5357204]},"properties":{"id":"way/1330512853","osmId":1330512853,"facilityType":"covered_court","name":"Cayamcam Covered Court","address":"Cayamcam Covered Court, Tungawan, Cayamcam, Zamboanga Sibugay, Zamboanga Peninsula, Philippines","capacity":null,"hazardTypes":null}},{"type":"Feature","geometry":{"type":"Point","coordinates":[122.8746559,7.7043147]},"properties":{"id":"node/11178095340","osmId":11178095340,"facilityType":"covered_court","name":"Covered Court","address":"Covered Court, Pagadian-Zamboanga City Highway, Bataan, Siay, Zamboanga Sibugay, Zamboanga Peninsula, 7006, Philippines","capacity":null,"hazardTypes":null}},{"type":"Feature","geometry":{"type":"Point","coordinates":[123.3638813,7.815788]},"properties":{"id":"way/1006394627","osmId":1006394627,"facilityType":"covered_court","name":"DRPS Covered Court","address":"DRPS Covered Court, Teachers' Avenue, Poblacion, Dumalinao, Zamboanga del Sur, Zamboanga Peninsula, 7015, Philippines","capacity":null,"hazardTypes":null}},{"type":"Feature","geometry":{"type":"Point","coordinates":[123.4141225,7.8107648]},"properties":{"id":"way/1183857432","osmId":1183857432,"facilityType":"covered_court","name":"Napolan Covered Court","address":"Napolan Covered Court, Centro, Pagadian, Zamboanga del Sur, Zamboanga Peninsula, 7060, Philippines","capacity":null,"hazardTypes":null}},{"type":"Feature","geometry":{"type":"Point","coordinates":[123.154657,7.8530817]},"properties":{"id":"way/1343965049","osmId":1343965049,"facilityType":"covered_court","name":"Poblacion Covered Court","address":"Poblacion Covered Court, Poblacion, Lakewood, Zamboanga del Sur, Zamboanga Peninsula, 7014, Philippines","capacity":null,"hazardTypes":null}},{"type":"Feature","geometry":{"type":"Point","coordinates":[123.0481603,7.8554647]},"properties":{"id":"way/369640436","osmId":369640436,"facilityType":"covered_court","name":"Kahayagan Covered Court","address":"Kahayagan Covered Court, Sindangan-Bayog Road, Upper Cahayagan, Bobuan, Zamboanga del Sur, Zamboanga Peninsula, 7011, Philippines","capacity":null,"hazardTypes":null}},{"type":"Feature","geometry":{"type":"Point","coordinates":[123.0093088,7.5296638]},"properties":{"id":"way/1334177590","osmId":1334177590,"facilityType":"covered_court","name":"Lapirawan Covered Court","address":"Lapirawan Covered Court, Lapirawan, Alicia, Zamboanga Sibugay, Zamboanga Peninsula, 7040, Philippines","capacity":null,"hazardTypes":null}},{"type":"Feature","geometry":{"type":"Point","coordinates":[123.7717681,7.9262147]},"properties":{"id":"way/601205585","osmId":601205585,"facilityType":"covered_court","name":"CKCM Covered Court","address":"CKCM Covered Court, Linamon-Zamboanga Road, Apitong, Lala, Lanao del Norte, Northern Mindanao, 9211, Philippines","capacity":null,"hazardTypes":null}},{"type":"Feature","geometry":{"type":"Point","coordinates":[124.226668,7.9381265]},"properties":{"id":"way/1131519100","osmId":1131519100,"facilityType":"covered_court","name":"Inudaran Covered Court","address":"Inudaran Covered Court, Narciso Ramos Highway, Marawi City, Lanao del Sur, Bangsamoro, Philippines","capacity":null,"hazardTypes":null}},{"type":"Feature","geometry":{"type":"Point","coordinates":[124.8076314,7.8882378]},"properties":{"id":"way/823175902","osmId":823175902,"facilityType":"covered_court","name":"Mendis Covered Court","address":"Mendis Covered Court, Mount Kalatungan Trail, Mahayahay, Mendis, Pangantucan, Bukidnon, Northern Mindanao, Philippines","capacity":null,"hazardTypes":null}},{"type":"Feature","geometry":{"type":"Point","coordinates":[124.719026,7.5804485]},"properties":{"id":"way/1302878444","osmId":1302878444,"facilityType":"covered_court","name":"Gastav Covered Court","address":"Gastav Covered Court, Banisilan-Wao Road, Gastav, North Cotabato, Soccsksargen, 9416, Philippines","capacity":null,"hazardTypes":null}},{"type":"Feature","geometry":{"type":"Point","coordinates":[124.8637121,7.7456749]},"properties":{"id":"way/1390302811","osmId":1390302811,"facilityType":"covered_court","name":"San Roque Covered Court","address":"San Roque Covered Court, Pualas-Kasigkot Road, Kasigkot, Don Carlos, Bukidnon, Northern Mindanao, Philippines","capacity":null,"hazardTypes":null}},{"type":"Feature","geometry":{"type":"Point","coordinates":[124.6259068,7.82523]},"properties":{"id":"way/1372605148","osmId":1372605148,"facilityType":"covered_court","name":"Salam Covered Court","address":"Salam Covered Court, Governor Mamintal M. Adiong Sr. Road, Amai Manabilang, Lanao del Sur, Bangsamoro, 9320, Philippines","capacity":null,"hazardTypes":null}},{"type":"Feature","geometry":{"type":"Point","coordinates":[124.6849961,7.2533133]},"properties":{"id":"way/1382260688","osmId":1382260688,"facilityType":"covered_court","name":"Tonganon Covered Court","address":"Tonganon Covered Court, New Panay-Tupig Road, Carmen, North Cotabato, Soccsksargen, 9408, Philippines","capacity":null,"hazardTypes":null}},{"type":"Feature","geometry":{"type":"Point","coordinates":[125.3305711,7.9316164]},"properties":{"id":"way/964443812","osmId":964443812,"facilityType":"covered_court","name":"Covered Court","address":"Covered Court, Diversion Road, Malantao, Tubuyahay, San Fernando, Bukidnon, Northern Mindanao, Philippines","capacity":null,"hazardTypes":null}},{"type":"Feature","geometry":{"type":"Point","coordinates":[125.0040443,7.8955392]},"properties":{"id":"way/399008056","osmId":399008056,"facilityType":"covered_court","name":"Covered Court","address":"Covered Court, Valencia-Pangantucan Road, Kibalaan, Barobo, Valencia, Bukidnon, Northern Mindanao, 8709, Philippines","capacity":null,"hazardTypes":null}},{"type":"Feature","geometry":{"type":"Point","coordinates":[125.6201505,7.2191912]},"properties":{"id":"way/179652404","osmId":179652404,"facilityType":"covered_court","name":"Mahayag Covered Court","address":"Mahayag Covered Court, Purok 1, Bunawan District, Mahayag, Davao City, Davao Region, 8000, Philippines","capacity":null,"hazardTypes":null}},{"type":"Feature","geometry":{"type":"Point","coordinates":[125.5449598,7.2099267]},"properties":{"id":"way/150626545","osmId":150626545,"facilityType":"covered_court","name":"Callawa Covered Court","address":"Callawa Covered Court, Mandug-Callawa Road, Purok 1-B, Secret Village, Buhangin District, Davao City, Davao Region, 8000, Philippines","capacity":null,"hazardTypes":null}},{"type":"Feature","geometry":{"type":"Point","coordinates":[125.5042718,7.3557986]},"properties":{"id":"way/455199960","osmId":455199960,"facilityType":"covered_court","name":"Pañalum Covered Court","address":"Pañalum Covered Court, Mabuhay-Pañalum-Paquibato Road, Purok 5, Pañalum, Paquibato District, Davao City, Davao Region, 8000, Philippines","capacity":null,"hazardTypes":null}},{"type":"Feature","geometry":{"type":"Point","coordinates":[125.5122638,7.2340587]},"properties":{"id":"way/933652381","osmId":933652381,"facilityType":"covered_court","name":"Dalagdag Covered Court","address":"Dalagdag Covered Court, Dalagdag-Lampiano Road, Purok 3, Calinan District, Davao City, Davao Region, Philippines","capacity":null,"hazardTypes":null}},{"type":"Feature","geometry":{"type":"Point","coordinates":[125.6429876,7.2356429]},"properties":{"id":"way/140127548","osmId":140127548,"facilityType":"covered_court","name":"Bunawan Covered Court","address":"Bunawan Covered Court, Davao-Agusan National Highway, Santo Niño, Bunawan District, Davao City, Davao Region, 8017, Philippines","capacity":null,"hazardTypes":null}},{"type":"Feature","geometry":{"type":"Point","coordinates":[125.5142898,7.2185763]},"properties":{"id":"way/1136407870","osmId":1136407870,"facilityType":"covered_court","name":"Lampiano Covered Court","address":"Lampiano Covered Court, Dalagdag-Lampiano Road, Purok 6, Asang, Calinan District, Davao City, Davao Region, Philippines","capacity":null,"hazardTypes":null}},{"type":"Feature","geometry":{"type":"Point","coordinates":[125.539798,7.3857986]},"properties":{"id":"way/976513162","osmId":976513162,"facilityType":"covered_court","name":"Pandaitan Covered Court","address":"Pandaitan Covered Court, Tibulao-Pandaitan Road, Purok 2, Pandaitan, Paquibato District, Davao City, Davao Region, 8000, Philippines","capacity":null,"hazardTypes":null}},{"type":"Feature","geometry":{"type":"Point","coordinates":[125.5091197,7.531802]},"properties":{"id":"way/686429212","osmId":686429212,"facilityType":"covered_court","name":"Panaga Covered Court","address":"Panaga Covered Court, Panaga-Tapak Road, Colosas, Paquibato District, Davao City, Davao Region, 8000, Philippines","capacity":null,"hazardTypes":null}},{"type":"Feature","geometry":{"type":"Point","coordinates":[125.6425037,7.2037193]},"properties":{"id":"way/154677223","osmId":154677223,"facilityType":"covered_court","name":"San Isidro Covered Court","address":"San Isidro Covered Court, Panuntungan Road, Purok 15, Bunawan District, Davao City, Davao Region, 8024, Philippines","capacity":null,"hazardTypes":null}},{"type":"Feature","geometry":{"type":"Point","coordinates":[125.5316553,7.2887749]},"properties":{"id":"way/520215914","osmId":520215914,"facilityType":"covered_court","name":"Fatima Covered Court","address":"Fatima Covered Court, Callawa-Fatima Road, Fatima, Paquibato District, Davao City, Davao del Norte, Davao Region, Philippines","capacity":null,"hazardTypes":null}},{"type":"Feature","geometry":{"type":"Point","coordinates":[125.6056463,7.2257058]},"properties":{"id":"way/175209466","osmId":175209466,"facilityType":"covered_court","name":"Sta. Cruz Covered Court","address":"Sta. Cruz Covered Court, Kiotoy-Santa Cruz Road, Purok 2, Santa Cruz, Panabo, Davao del Norte, Davao Region, 8105, Philippines","capacity":null,"hazardTypes":null}},{"type":"Feature","geometry":{"type":"Point","coordinates":[125.5485019,7.2495686]},"properties":{"id":"node/1900687831","osmId":1900687831,"facilityType":"covered_court","name":"San Roque Covered Court","address":"San Roque Covered Court, Katualan-San Roque Road, San Roque, Panabo, Davao del Norte, Davao Region, 8105, Philippines","capacity":null,"hazardTypes":null}},{"type":"Feature","geometry":{"type":"Point","coordinates":[125.6245875,7.2745909]},"properties":{"id":"way/840357220","osmId":840357220,"facilityType":"covered_court","name":"Tagpore Covered Court","address":"Tagpore Covered Court, Maligaya, Tagpore, Panabo, Davao del Norte, Davao Region, 8105, Philippines","capacity":null,"hazardTypes":null}},{"type":"Feature","geometry":{"type":"Point","coordinates":[125.7016105,7.3579736]},"properties":{"id":"way/725447519","osmId":725447519,"facilityType":"covered_court","name":"Ising Covered Court","address":"Ising Covered Court, Rosal Street, Purok 6, Ising, Asuncion, Carmen, Davao del Norte, Davao Region, 8101, Philippines","capacity":null,"hazardTypes":null}},{"type":"Feature","geometry":{"type":"Point","coordinates":[125.6362581,7.3966956]},"properties":{"id":"way/157851475","osmId":157851475,"facilityType":"covered_court","name":"Magsaysay Covered Court","address":"Magsaysay Covered Court, Narra Street, Purok 3-A, Magsaysay, Carmen, Davao del Norte, Davao Region, 8101, Philippines","capacity":null,"hazardTypes":null}},{"type":"Feature","geometry":{"type":"Point","coordinates":[125.6600996,7.3845853]},"properties":{"id":"way/157855164","osmId":157855164,"facilityType":"covered_court","name":"Alejal Covered Court","address":"Alejal Covered Court, Sapphire Street, Purok 3, Alejal, Carmen, Davao del Norte, Davao Region, 8101, Philippines","capacity":null,"hazardTypes":null}},{"type":"Feature","geometry":{"type":"Point","coordinates":[125.6682372,7.2749394]},"properties":{"id":"way/643508852","osmId":643508852,"facilityType":"covered_court","name":"J. P. Laurel Covered Court","address":"J. P. Laurel Covered Court, Narra Street, Centro 1, J. P. Laurel, Panabo, Davao del Norte, Davao Region, 8105, Philippines","capacity":null,"hazardTypes":null}},{"type":"Feature","geometry":{"type":"Point","coordinates":[125.6785502,7.2967324]},"properties":{"id":"way/144957892","osmId":144957892,"facilityType":"covered_court","name":"Gredu Covered Court","address":"Gredu Covered Court, Davao-Agusan National Highway, Gabi, Gredu, Panabo, Davao del Norte, Davao Region, 8105, Philippines","capacity":null,"hazardTypes":null}},{"type":"Feature","geometry":{"type":"Point","coordinates":[125.6674309,7.308659]},"properties":{"id":"way/642315040","osmId":642315040,"facilityType":"covered_court","name":"New Visayas Covered Court","address":"New Visayas Covered Court, Quirino Street, Durian, New Visayas, Datu Abdul Dadia, Panabo, Davao del Norte, Davao Region, 8105, Philippines","capacity":null,"hazardTypes":null}},{"type":"Feature","geometry":{"type":"Point","coordinates":[125.6307697,7.3010556]},"properties":{"id":"way/179641712","osmId":179641712,"facilityType":"covered_court","name":"Katipunan Covered Court","address":"Katipunan Covered Court, Katipunan-Cacao Road, Purok 5, Cacao, Panabo, Davao del Norte, Davao Region, 8105, Philippines","capacity":null,"hazardTypes":null}},{"type":"Feature","geometry":{"type":"Point","coordinates":[125.6382871,7.3320833]},"properties":{"id":"way/641700992","osmId":641700992,"facilityType":"covered_court","name":"Nanyo Covered Court","address":"Nanyo Covered Court, Tagum-Panabo Circumferential Road, Ampalaya, Gredu, Nanyo, Panabo, Davao del Norte, Davao Region, 8105, Philippines","capacity":null,"hazardTypes":null}},{"type":"Feature","geometry":{"type":"Point","coordinates":[125.5846596,7.4398013]},"properties":{"id":"way/701734682","osmId":701734682,"facilityType":"covered_court","name":"Sindaton Covered Court","address":"Sindaton Covered Court, Tulalian-Sindaton Road, Purok 4, Sindaton, Panabo, Davao del Norte, Davao Region, 8105, Philippines","capacity":null,"hazardTypes":null}},{"type":"Feature","geometry":{"type":"Point","coordinates":[125.6547225,7.3154953]},"properties":{"id":"way/157840533","osmId":157840533,"facilityType":"covered_court","name":"Barangay Datu Abdul Dadia Covered Court","address":"Barangay Datu Abdul Dadia Covered Court, Quirino Street, Durian, Gredu, Datu Abdul Dadia, Panabo, Davao del Norte, Davao Region, 8105, Philippines","capacity":null,"hazardTypes":null}},{"type":"Feature","geometry":{"type":"Point","coordinates":[125.607809,7.2444738]},"properties":{"id":"way/516269951","osmId":516269951,"facilityType":"covered_court","name":"Kiotoy Covered Court","address":"Kiotoy Covered Court, Kiotoy-Mabunao Road, Purok 2, Kiotoy, Panabo, Davao del Norte, Davao Region, 8105, Philippines","capacity":null,"hazardTypes":null}},{"type":"Feature","geometry":{"type":"Point","coordinates":[125.8257741,7.4240541]},"properties":{"id":"way/1190577861","osmId":1190577861,"facilityType":"covered_court","name":"Apokon Covered Court","address":"Apokon Covered Court, Garnet Street, Gemini Village, Apokon, Tagum, Davao del Norte, Davao Region, 8100, Philippines","capacity":null,"hazardTypes":null}},{"type":"Feature","geometry":{"type":"Point","coordinates":[125.8033971,7.4771091]},"properties":{"id":"way/180573848","osmId":180573848,"facilityType":"covered_court","name":"La Filipina Covered Court","address":"La Filipina Covered Court, Roxas Street, Purok 2-B, La Filipina, Tagum, Davao del Norte, Davao Region, 8100, Philippines","capacity":null,"hazardTypes":null}},{"type":"Feature","geometry":{"type":"Point","coordinates":[125.7519884,7.4824748]},"properties":{"id":"way/180704653","osmId":180704653,"facilityType":"covered_court","name":"Barangay Pagsabangan Covered Court","address":"Barangay Pagsabangan Covered Court, Tagum-Panabo Circumferential Road, Purok 2, Cambanogoy, Tagum, Davao del Norte, Davao Region, 8102, Philippines","capacity":null,"hazardTypes":null}},{"type":"Feature","geometry":{"type":"Point","coordinates":[125.8144593,7.4546766]},"properties":{"id":"way/180570792","osmId":180570792,"facilityType":"covered_court","name":"Magugpo North Covered Court","address":"Magugpo North Covered Court, Mirafuentes Avenue, Everlasting, Magugpo North, Tagum, Davao del Norte, Davao Region, 8100, Philippines","capacity":null,"hazardTypes":null}},{"type":"Feature","geometry":{"type":"Point","coordinates":[125.7946251,7.388637]},"properties":{"id":"way/656762578","osmId":656762578,"facilityType":"covered_court","name":"San Isidro Covered Court","address":"San Isidro Covered Court, Tagum City Bypass Road, Katipunan, Madaum, Tagum, Davao del Norte, Davao Region, 8100, Philippines","capacity":null,"hazardTypes":null}},{"type":"Feature","geometry":{"type":"Point","coordinates":[125.7668193,7.4602879]},"properties":{"id":"way/751206451","osmId":751206451,"facilityType":"covered_court","name":"Purok Banana Covered Court","address":"Purok Banana Covered Court, Tagum City Bypass Road, Magtalisay, Tagum, Davao del Norte, Davao Region, 8100, Philippines","capacity":null,"hazardTypes":null}},{"type":"Feature","geometry":{"type":"Point","coordinates":[125.6898192,7.5793171]},"properties":{"id":"way/694214345","osmId":694214345,"facilityType":"covered_court","name":"Pag-Asa Covered Court","address":"Pag-Asa Covered Court, Purok 6, Pag-Asa, Kapalong, Davao del Norte, Davao Region, 8113, Philippines","capacity":null,"hazardTypes":null}},{"type":"Feature","geometry":{"type":"Point","coordinates":[125.7388066,7.4724521]},"properties":{"id":"way/830439962","osmId":830439962,"facilityType":"covered_court","name":"Esperanza Covered Court","address":"Esperanza Covered Court, Esperanza Road, Esperanza, Santo Tomas, Davao del Norte, Davao Region, 8112, Philippines","capacity":null,"hazardTypes":null}},{"type":"Feature","geometry":{"type":"Point","coordinates":[125.7231514,7.5288122]},"properties":{"id":"way/685727987","osmId":685727987,"facilityType":"covered_court","name":"Talomo Covered Court","address":"Talomo Covered Court, 11DAN145, Yakal, Talomo, Santo Tomas, Davao del Norte, Davao Region, 8112, Philippines","capacity":null,"hazardTypes":null}},{"type":"Feature","geometry":{"type":"Point","coordinates":[125.5542447,7.5423564]},"properties":{"id":"way/689315864","osmId":689315864,"facilityType":"covered_court","name":"Magwawa Covered Court","address":"Magwawa Covered Court, Santo Tomas-Magwawa Road, Mahayahay, Magwawa, Santo Tomas, Davao del Norte, Davao Region, 8112, Philippines","capacity":null,"hazardTypes":null}},{"type":"Feature","geometry":{"type":"Point","coordinates":[125.6535938,7.5323677]},"properties":{"id":"way/693041390","osmId":693041390,"facilityType":"covered_court","name":"Masagana Covered Court","address":"Masagana Covered Court, Feeder 3 Kimamon Luna (JP Laurel Avenue), Purok 6, Masagana, Tibal-og, Santo Tomas, Davao del Norte, Davao Region, 8112, Philippines","capacity":null,"hazardTypes":null}},{"type":"Feature","geometry":{"type":"Point","coordinates":[125.6730453,7.499821]},"properties":{"id":"way/289138955","osmId":289138955,"facilityType":"covered_court","name":"Kinamayan Covered Court","address":"Kinamayan Covered Court, Dujali-Kinamayan Road, Purok 3, Lanatad, Kinamayan, Santo Tomas, Davao del Norte, Davao Region, 8112, Philippines","capacity":null,"hazardTypes":null}},{"type":"Feature","geometry":{"type":"Point","coordinates":[125.585676,7.455698]},"properties":{"id":"way/909645102","osmId":909645102,"facilityType":"covered_court","name":"Tulalian Covered Court","address":"Tulalian Covered Court, Tulalian-Sindaton Road, Purok 4, Sindaton, Santo Tomas, Davao del Norte, Davao Region, 8105, Philippines","capacity":null,"hazardTypes":null}},{"type":"Feature","geometry":{"type":"Point","coordinates":[125.6226482,7.5324301]},"properties":{"id":"way/334812524","osmId":334812524,"facilityType":"covered_court","name":"Santo Tomas Municipal Covered Court","address":"Santo Tomas Municipal Covered Court, Camia Street, Purok 6, Tibal-og, Santo Tomas, Davao del Norte, Davao Region, 8112, Philippines","capacity":null,"hazardTypes":null}},{"type":"Feature","geometry":{"type":"Point","coordinates":[125.805877,7.7241649]},"properties":{"id":"way/976827255","osmId":976827255,"facilityType":"covered_court","name":"Kapatagan Covered Court","address":"Kapatagan Covered Court, Sawata-Laak Road, Purok 2, Kapatagan, Laak, Davao de Oro, Davao Region, 8810, Philippines","capacity":null,"hazardTypes":null}},{"type":"Feature","geometry":{"type":"Point","coordinates":[125.8141844,7.8995158]},"properties":{"id":"way/1003906815","osmId":1003906815,"facilityType":"covered_court","name":"Kiokmay Covered Court","address":"Kiokmay Covered Court, Laak-Veruela Road, Kiokmay, Laak, Davao de Oro, Davao Region, 8810, Philippines","capacity":null,"hazardTypes":null}},{"type":"Feature","geometry":{"type":"Point","coordinates":[126.4545382,7.7905288]},"properties":{"id":"way/962272586","osmId":962272586,"facilityType":"covered_court","name":"Covered Court","address":"Covered Court, Lapu-Lapu Street, Poblacion, Cateel, Davao Oriental, Davao Region, 8205, Philippines","capacity":null,"hazardTypes":null}},{"type":"Feature","geometry":{"type":"Point","coordinates":[126.4503966,7.7861015]},"properties":{"id":"way/962272590","osmId":962272590,"facilityType":"covered_court","name":"Covered Court","address":"Covered Court, Kapitan E. Toroba Street, Magupay 1, Cateel, Davao Oriental, Davao Region, 8205, Philippines","capacity":null,"hazardTypes":null}},{"type":"Feature","geometry":{"type":"Point","coordinates":[117.3582933,8.5266797]},"properties":{"id":"way/985107533","osmId":985107533,"facilityType":"covered_court","name":"Sumbiling Covered Court","address":"Sumbiling Covered Court, Sumbiling, Palawan, Mimaropa, 5306, Philippines","capacity":null,"hazardTypes":null}},{"type":"Feature","geometry":{"type":"Point","coordinates":[117.2638067,8.5722139]},"properties":{"id":"way/958042282","osmId":958042282,"facilityType":"covered_court","name":"Canipaan Covered Court","address":"Canipaan Covered Court, Canipaan, Palawan, Mimaropa, Philippines","capacity":null,"hazardTypes":null}},{"type":"Feature","geometry":{"type":"Point","coordinates":[123.3448243,8.5716772]},"properties":{"id":"way/971103077","osmId":971103077,"facilityType":"covered_court","name":"Cor Jesu Seminary Covered Court","address":"Cor Jesu Seminary Covered Court, Father Nicasio Patangan Road, Evergreen, Santa Isabel, Zamboanga del Norte, Zamboanga Peninsula, 7100, Philippines","capacity":null,"hazardTypes":null}},{"type":"Feature","geometry":{"type":"Point","coordinates":[123.3397838,8.5760019]},"properties":{"id":"way/971127638","osmId":971127638,"facilityType":"covered_court","name":"CSWDO Covered Court","address":"CSWDO Covered Court, Dipolog-Oroquieta Road, Mauswagon, Dipolog, Zamboanga del Norte, Zamboanga Peninsula, 7100, Philippines","capacity":null,"hazardTypes":null}},{"type":"Feature","geometry":{"type":"Point","coordinates":[123.3382277,8.5845519]},"properties":{"id":"way/1356154876","osmId":1356154876,"facilityType":"covered_court","name":"Miputak Hall Covered Court","address":"Miputak Hall Covered Court, Tomas Claudio Street, Central, Miputak, Zamboanga del Norte, Zamboanga Peninsula, 7100, Philippines","capacity":null,"hazardTypes":null}},{"type":"Feature","geometry":{"type":"Point","coordinates":[123.3421924,8.5766738]},"properties":{"id":"way/485659565","osmId":485659565,"facilityType":"covered_court","name":"Santa Isabel Covered Court","address":"Santa Isabel Covered Court, Governor Alberto Ubay Road, Bliss, Santa Isabel, Zamboanga del Norte, Zamboanga Peninsula, 7100, Philippines","capacity":null,"hazardTypes":null}},{"type":"Feature","geometry":{"type":"Point","coordinates":[123.286602,8.5104622]},"properties":{"id":"way/557203675","osmId":557203675,"facilityType":"covered_court","name":"JRMSU-K Covered Court","address":"JRMSU-K Covered Court, Dipolog-Sindangan-Liloy Road, Poblacion, Katipunan, Zamboanga del Norte, Zamboanga Peninsula, 7109, Philippines","capacity":null,"hazardTypes":null}},{"type":"Feature","geometry":{"type":"Point","coordinates":[123.3164764,8.0720243]},"properties":{"id":"way/1005793058","osmId":1005793058,"facilityType":"covered_court","name":"Palili Covered Court","address":"Palili Covered Court, Purok 1, Palili, Midsalip, Zamboanga del Sur, Zamboanga Peninsula, 7021, Philippines","capacity":null,"hazardTypes":null}},{"type":"Feature","geometry":{"type":"Point","coordinates":[123.0525471,8.4814974]},"properties":{"id":"way/668836336","osmId":668836336,"facilityType":"covered_court","name":"Upper Disakan Covered Court","address":"Upper Disakan Covered Court, Manukan, Upper Disakan, Zamboanga del Norte, Zamboanga Peninsula, Philippines","capacity":null,"hazardTypes":null}},{"type":"Feature","geometry":{"type":"Point","coordinates":[123.1418687,8.5216031]},"properties":{"id":"way/668836373","osmId":668836373,"facilityType":"covered_court","name":"Don Jose Aguirre Elementary School Covered Court","address":"Don Jose Aguirre Elementary School Covered Court, 79, Don Jose Aguirre, Zamboanga del Norte, Zamboanga Peninsula, 7110, Philippines","capacity":null,"hazardTypes":null}},{"type":"Feature","geometry":{"type":"Point","coordinates":[123.8464603,8.2555325]},"properties":{"id":"way/917502745","osmId":917502745,"facilityType":"covered_court","name":"Covered Court","address":"Covered Court, Ozamiz-Oroquieta Road, Tigdok, Misamis Occidental, Northern Mindanao, 7202, Philippines","capacity":null,"hazardTypes":null}},{"type":"Feature","geometry":{"type":"Point","coordinates":[125.3457037,8.0479756]},"properties":{"id":"way/903316833","osmId":903316833,"facilityType":"covered_court","name":"Covered Court","address":"Covered Court, Cabanglasan-San Fernando Road, Manggaod, Cabanglasan, Bukidnon, Northern Mindanao, 8723, Philippines","capacity":null,"hazardTypes":null}},{"type":"Feature","geometry":{"type":"Point","coordinates":[124.2386021,8.2242477]},"properties":{"id":"way/498050702","osmId":498050702,"facilityType":"covered_court","name":"Mahayahay Covered Court","address":"Mahayahay Covered Court, Mahayahay Road, Mahayahay, Iligan, Northern Mindanao, 9200, Philippines","capacity":null,"hazardTypes":null}},{"type":"Feature","geometry":{"type":"Point","coordinates":[124.2443005,8.2503266]},"properties":{"id":"way/609110621","osmId":609110621,"facilityType":"covered_court","name":"Santiago Covered Court","address":"Santiago Covered Court, Isabel Ramiro Street, Santiago, Iligan, Northern Mindanao, 9200, Philippines","capacity":null,"hazardTypes":null}},{"type":"Feature","geometry":{"type":"Point","coordinates":[124.2490751,8.2387556]},"properties":{"id":"way/498057741","osmId":498057741,"facilityType":"covered_court","name":"Brgy. San Miguel Covered Court","address":"Brgy. San Miguel Covered Court, Miguel Sheker Avenue, Bagong Silang, Iligan, Northern Mindanao, 9200, Philippines","capacity":null,"hazardTypes":null}},{"type":"Feature","geometry":{"type":"Point","coordinates":[124.274889,8.2288223]},"properties":{"id":"way/669066132","osmId":669066132,"facilityType":"covered_court","name":"Puga-an Covered Court","address":"Puga-an Covered Court, Pugaan-Mandulog Road, Purok 2-B, Puga-an, Iligan, Northern Mindanao, 9200, Philippines","capacity":null,"hazardTypes":null}},{"type":"Feature","geometry":{"type":"Point","coordinates":[124.2242163,8.1724513]},"properties":{"id":"way/1093692224","osmId":1093692224,"facilityType":"covered_court","name":"Upper Tominobo Covered Court","address":"Upper Tominobo Covered Court, Overton-Abaga Boundary Road, Iligan, Lanao del Norte, Northern Mindanao, 9201, Philippines","capacity":null,"hazardTypes":null}},{"type":"Feature","geometry":{"type":"Point","coordinates":[124.2517041,8.241496]},"properties":{"id":"way/1093494510","osmId":1093494510,"facilityType":"covered_court","name":"Bagong Silang Covered Court","address":"Bagong Silang Covered Court, Milestone Drive, Bagong Silang, Iligan, Northern Mindanao, 9200, Philippines","capacity":null,"hazardTypes":null}},{"type":"Feature","geometry":{"type":"Point","coordinates":[124.2472497,8.2327471]},"properties":{"id":"way/582716086","osmId":582716086,"facilityType":"covered_court","name":"Covered Basketball Court","address":"Covered Basketball Court, Brother Raymund Jeffrey Road, Orchids, Iligan, Northern Mindanao, 9200, Philippines","capacity":null,"hazardTypes":null}},{"type":"Feature","geometry":{"type":"Point","coordinates":[124.2409144,8.2223299]},"properties":{"id":"way/391610004","osmId":391610004,"facilityType":"covered_court","name":"ICC Covered Court","address":"ICC Covered Court, Roxas Avenue, Mahayahay, Iligan, Northern Mindanao, 9200, Philippines","capacity":null,"hazardTypes":null}},{"type":"Feature","geometry":{"type":"Point","coordinates":[124.3881159,8.2977894]},"properties":{"id":"way/927169017","osmId":927169017,"facilityType":"covered_court","name":"Mainit Covered Court","address":"Mainit Covered Court, Manticao-Locloc Road, Iligan, Opol, Misamis Oriental, Northern Mindanao, 9016, Philippines","capacity":null,"hazardTypes":null}},{"type":"Feature","geometry":{"type":"Point","coordinates":[124.1688905,8.1875469]},"properties":{"id":"way/609664654","osmId":609664654,"facilityType":"covered_court","name":"Buru-un Covered Court","address":"Buru-un Covered Court, Linamon-Zamboanga Road, Buru-un, Iligan, Northern Mindanao, 9201, Philippines","capacity":null,"hazardTypes":null}},{"type":"Feature","geometry":{"type":"Point","coordinates":[124.2431132,8.2327716]},"properties":{"id":"way/1093692228","osmId":1093692228,"facilityType":"covered_court","name":"Villa Verde Covered Court","address":"Villa Verde Covered Court, A. Rigodon Street, Sampaguita, Iligan, Northern Mindanao, 9200, Philippines","capacity":null,"hazardTypes":null}},{"type":"Feature","geometry":{"type":"Point","coordinates":[124.2528607,8.2429758]},"properties":{"id":"way/1093692230","osmId":1093692230,"facilityType":"covered_court","name":"Santo Rosario Covered Court","address":"Santo Rosario Covered Court, Andres Bonifacio Avenue, Purok 6B, Luinab, Iligan, Northern Mindanao, 9200, Philippines","capacity":null,"hazardTypes":null}},{"type":"Feature","geometry":{"type":"Point","coordinates":[124.3685705,8.2053624]},"properties":{"id":"way/1093398321","osmId":1093398321,"facilityType":"covered_court","name":"Dulag Covered Court","address":"Dulag Covered Court, Dulag-Kalilangan Road, Dulag, Iligan, Northern Mindanao, Philippines","capacity":null,"hazardTypes":null}},{"type":"Feature","geometry":{"type":"Point","coordinates":[124.3041219,8.3032564]},"properties":{"id":"way/992269663","osmId":992269663,"facilityType":"covered_court","name":"Bunawan Covered Court","address":"Bunawan Covered Court, Iligan-Bukidnon Road, Pobakdal Village, Bonbonon, Iligan, Northern Mindanao, 9200, Philippines","capacity":null,"hazardTypes":null}},{"type":"Feature","geometry":{"type":"Point","coordinates":[123.9471602,8.1541838]},"properties":{"id":"way/1237455170","osmId":1237455170,"facilityType":"covered_court","name":"Balagatasa Covered Court","address":"Balagatasa Covered Court, Balagatasa, Lanao del Norte, Northern Mindanao, 9206, Philippines","capacity":null,"hazardTypes":null}},{"type":"Feature","geometry":{"type":"Point","coordinates":[124.416797,8.4334933]},"properties":{"id":"way/1183825452","osmId":1183825452,"facilityType":"covered_court","name":"Tula Covered Court","address":"Tula Covered Court, Alubijid, Tula, Misamis Oriental, Northern Mindanao, Philippines","capacity":null,"hazardTypes":null}},{"type":"Feature","geometry":{"type":"Point","coordinates":[124.3458892,8.3178292]},"properties":{"id":"way/898408887","osmId":898408887,"facilityType":"covered_court","name":"Hindang Covered Court","address":"Hindang Covered Court, Hindang, Betahon, Iligan, Northern Mindanao, Philippines","capacity":null,"hazardTypes":null}},{"type":"Feature","geometry":{"type":"Point","coordinates":[125.942199,8.5515973]},"properties":{"id":"way/488649961","osmId":488649961,"facilityType":"covered_court","name":"Covered Court","address":"Covered Court, Road A, RDC Eco Homes, Patin-ay, Prosperidad, Agusan del Sur, Caraga, 8514, Philippines","capacity":null,"hazardTypes":null}},{"type":"Feature","geometry":{"type":"Point","coordinates":[125.6030628,8.7601673]},"properties":{"id":"way/691138914","osmId":691138914,"facilityType":"covered_court","name":"Covered Court","address":"Covered Court, Butuan City-Malaybalay Road, Dankias Subdivision I, Dankias, Butuan, Caraga, 8610, Philippines","capacity":null,"hazardTypes":null}},{"type":"Feature","geometry":{"type":"Point","coordinates":[124.6447821,8.4653517]},"properties":{"id":"way/189781181","osmId":189781181,"facilityType":"covered_court","name":"Macasandig Multipurpose Covered Court","address":"Macasandig Multipurpose Covered Court, Tomas Saco Street, Tibasak, Macasandig, Cagayan de Oro, Northern Mindanao, 9000, Philippines","capacity":null,"hazardTypes":null}},{"type":"Feature","geometry":{"type":"Point","coordinates":[124.6397073,8.496339]},"properties":{"id":"way/437095261","osmId":437095261,"facilityType":"covered_court","name":"Kauswagan Barangay Covered Court","address":"Kauswagan Barangay Covered Court, Sabalo Compound, San Isidro Village, Kauswagan, Cagayan de Oro, Northern Mindanao, 9000, Philippines","capacity":null,"hazardTypes":null}},{"type":"Feature","geometry":{"type":"Point","coordinates":[124.6489701,8.5093375]},"properties":{"id":"way/1158328710","osmId":1158328710,"facilityType":"covered_court","name":"Bonbon Covered Court","address":"Bonbon Covered Court, West Coastal Road, Villa Cristo Rey, Bonbon, Cagayan de Oro, Northern Mindanao, 9000, Philippines","capacity":null,"hazardTypes":null}},{"type":"Feature","geometry":{"type":"Point","coordinates":[124.7665829,8.5097753]},"properties":{"id":"node/10575736315","osmId":10575736315,"facilityType":"covered_court","name":"Phase 1 Covered Court","address":"Phase 1 Covered Court, Bugo-Reyes Main Road, Gawad Kalinga, Bugo, Cagayan de Oro, Northern Mindanao, 9000, Philippines","capacity":null,"hazardTypes":null}},{"type":"Feature","geometry":{"type":"Point","coordinates":[124.7723071,8.5102252]},"properties":{"id":"node/10672123166","osmId":10672123166,"facilityType":"covered_court","name":"Phase 2 Covered Court","address":"Phase 2 Covered Court, Peach Street, Villa Trinitas Phase 2, Cagayan de Oro, Northern Mindanao, 9000, Philippines","capacity":null,"hazardTypes":null}},{"type":"Feature","geometry":{"type":"Point","coordinates":[124.7768136,8.5115578]},"properties":{"id":"node/10672128740","osmId":10672128740,"facilityType":"covered_court","name":"Phase 3 Covered Court","address":"Phase 3 Covered Court, Bugo-Reyes Main Road, Gawad Kalinga, Bugo, Cagayan de Oro, Northern Mindanao, 9000, Philippines","capacity":null,"hazardTypes":null}},{"type":"Feature","geometry":{"type":"Point","coordinates":[124.6028423,8.2320714]},"properties":{"id":"way/652080123","osmId":652080123,"facilityType":"covered_court","name":"Talakag Covered Court","address":"Talakag Covered Court, Talakag-Libona Road, Barangay 4, Poblacion, Talakag, Bukidnon, Northern Mindanao, 8708, Philippines","capacity":null,"hazardTypes":null}},{"type":"Feature","geometry":{"type":"Point","coordinates":[124.8613629,8.277233]},"properties":{"id":"way/694651569","osmId":694651569,"facilityType":"covered_court","name":"Kalugmanan Covered Court","address":"Kalugmanan Covered Court, Sankanan - Kalugmanan Road, Kalugmanan, Manolo Fortich, Bukidnon, Northern Mindanao, 8703, Philippines","capacity":null,"hazardTypes":null}},{"type":"Feature","geometry":{"type":"Point","coordinates":[124.9224357,8.0478483]},"properties":{"id":"way/694944110","osmId":694944110,"facilityType":"covered_court","name":"Cawayan Covered Court","address":"Cawayan Covered Court, Lantapan-Talakag Road, Old Kibangay, Cawayan, Lantapan, Bukidnon, Northern Mindanao, 8702, Philippines","capacity":null,"hazardTypes":null}},{"type":"Feature","geometry":{"type":"Point","coordinates":[124.6098215,8.0486195]},"properties":{"id":"way/1290190193","osmId":1290190193,"facilityType":"covered_court","name":"San Rafael Covered Court","address":"San Rafael Covered Court, Cagayan de Oro-Dominorog Road, Purok 2, Santa Victoria, San Rafael, Talakag, Bukidnon, Northern Mindanao, 8708, Philippines","capacity":null,"hazardTypes":null}},{"type":"Feature","geometry":{"type":"Point","coordinates":[124.5855997,8.1927669]},"properties":{"id":"way/1288597844","osmId":1288597844,"facilityType":"covered_court","name":"Santo Niño Covered Court","address":"Santo Niño Covered Court, Cagayan de Oro - Dominorog - Camp Kibaritan Road, Barangay 2, Bagacay, Santo Niño, Talakag, Bukidnon, Northern Mindanao, 8708, Philippines","capacity":null,"hazardTypes":null}},{"type":"Feature","geometry":{"type":"Point","coordinates":[124.5698144,8.5264713]},"properties":{"id":"way/456582197","osmId":456582197,"facilityType":"covered_court","name":"Luyong Bonbon Covered Court","address":"Luyong Bonbon Covered Court, Butuan-Cagayan de Oro-Iligan Road, Opol, Misamis Oriental, Northern Mindanao, 9017, Philippines","capacity":null,"hazardTypes":null}},{"type":"Feature","geometry":{"type":"Point","coordinates":[124.6069073,8.5083562]},"properties":{"id":"way/1087700136","osmId":1087700136,"facilityType":"covered_court","name":"Barra Covered Court","address":"Barra Covered Court, Barra Road, Jondorf Subdivision, Opol, Misamis Oriental, Northern Mindanao, 9016, Philippines","capacity":null,"hazardTypes":null}},{"type":"Feature","geometry":{"type":"Point","coordinates":[124.7548758,8.6525525]},"properties":{"id":"way/456151360","osmId":456151360,"facilityType":"covered_court","name":"Jasaan Covered Court","address":"Jasaan Covered Court, Marcelo H. del Pilar Street, Lower Jasaan, Kimaya, Jasaan, Misamis Oriental, Northern Mindanao, 9003, Philippines","capacity":null,"hazardTypes":null}},{"type":"Feature","geometry":{"type":"Point","coordinates":[124.8927879,8.6112676]},"properties":{"id":"way/654443619","osmId":654443619,"facilityType":"covered_court","name":"Claveria Covered Court","address":"Claveria Covered Court, Gingoog-Claveria-Villanueva Road, Zone 1, Claveria, Misamis Oriental, Northern Mindanao, 9004, Philippines","capacity":null,"hazardTypes":null}},{"type":"Feature","geometry":{"type":"Point","coordinates":[122.5193525,8.0674657]},"properties":{"id":"way/900638677","osmId":900638677,"facilityType":"covered_court","name":"Antonino Covered Court","address":"Antonino Covered Court, Governor Matias Ranillo Street, Antonino, Labason, Zamboanga del Norte, Zamboanga Peninsula, 7117, Philippines","capacity":null,"hazardTypes":null}},{"type":"Feature","geometry":{"type":"Point","coordinates":[122.5285496,8.0671697]},"properties":{"id":"way/1341675841","osmId":1341675841,"facilityType":"covered_court","name":"Lopoc Covered Court","address":"Lopoc Covered Court, Doña Quinez Street, Imedla, Labason, Zamboanga del Norte, Zamboanga Peninsula, 7117, Philippines","capacity":null,"hazardTypes":null}},{"type":"Feature","geometry":{"type":"Point","coordinates":[122.5231589,8.0611714]},"properties":{"id":"way/1341675838","osmId":1341675838,"facilityType":"covered_court","name":"Imedla Covered Court","address":"Imedla Covered Court, Doña Quinez Street, Imedla, Labason, Zamboanga del Norte, Zamboanga Peninsula, 7117, Philippines","capacity":null,"hazardTypes":null}},{"type":"Feature","geometry":{"type":"Point","coordinates":[126.3011494,8.1732599]},"properties":{"id":"way/278030783","osmId":278030783,"facilityType":"covered_court","name":"Barangay San Antonio Covered Court","address":"Barangay San Antonio Covered Court, Purok 1, San Isidro, Bislig, Surigao del Sur, Caraga, 8311, Philippines","capacity":null,"hazardTypes":null}},{"type":"Feature","geometry":{"type":"Point","coordinates":[126.1006065,8.6546526]},"properties":{"id":"way/1201234116","osmId":1201234116,"facilityType":"covered_court","name":"Ganayon Covered Court","address":"Ganayon Covered Court, Surigao-Davao Coastal Road, Purok 2, Ganayon, Surigao del Sur, Caraga, 8307, Philippines","capacity":null,"hazardTypes":null}},{"type":"Feature","geometry":{"type":"Point","coordinates":[126.419129,8.0787734]},"properties":{"id":"way/1374351969","osmId":1374351969,"facilityType":"covered_court","name":"Anibongan Covered Court","address":"Anibongan Covered Court, Surigao-Davao Coastal Road, Poblacion, Hinipaan, Lingig, Surigao del Sur, Caraga, 8312, Philippines","capacity":null,"hazardTypes":null}},{"type":"Feature","geometry":{"type":"Point","coordinates":[117.5504469,8.9092139]},"properties":{"id":"way/985107554","osmId":985107554,"facilityType":"covered_court","name":"Ransang Covered Court","address":"Ransang Covered Court, 490, Ransang, Palawan, Mimaropa, Philippines","capacity":null,"hazardTypes":null}},{"type":"Feature","geometry":{"type":"Point","coordinates":[118.0114811,8.9197077]},"properties":{"id":"way/985464714","osmId":985464714,"facilityType":"covered_court","name":"Pulot Shore Covered Court","address":"Pulot Shore Covered Court, Calasaguen Road, Caramay, Palawan, Mimaropa, Philippines","capacity":null,"hazardTypes":null}},{"type":"Feature","geometry":{"type":"Point","coordinates":[118.0437742,8.9694392]},"properties":{"id":"way/985464737","osmId":985464737,"facilityType":"covered_court","name":"Iraray Covered Court","address":"Iraray Covered Court, Iraray, Palawan, Mimaropa, Philippines","capacity":null,"hazardTypes":null}},{"type":"Feature","geometry":{"type":"Point","coordinates":[117.9373929,9.2193429]},"properties":{"id":"way/986739354","osmId":986739354,"facilityType":"covered_court","name":"Panitian Covered Court","address":"Panitian Covered Court, 490, Malatgao, Palawan, Mimaropa, 5304, Philippines","capacity":null,"hazardTypes":null}},{"type":"Feature","geometry":{"type":"Point","coordinates":[117.9668073,8.9120946]},"properties":{"id":"way/985179334","osmId":985179334,"facilityType":"covered_court","name":"Calasaguen Covered Court","address":"Calasaguen Covered Court, Puerto Princesa South Road, Calasaguen, Palawan, Mimaropa, Philippines","capacity":null,"hazardTypes":null}},{"type":"Feature","geometry":{"type":"Point","coordinates":[117.9907244,8.9608644]},"properties":{"id":"way/985464720","osmId":985464720,"facilityType":"covered_court","name":"Pulot Covered Court","address":"Pulot Covered Court, Pulot Avenue, Pulot Center, Sofronio Española, Palawan, Mimaropa, 5305, Philippines","capacity":null,"hazardTypes":null}},{"type":"Feature","geometry":{"type":"Point","coordinates":[118.0280745,9.2385765]},"properties":{"id":"way/986886993","osmId":986886993,"facilityType":"covered_court","name":"Tabon Covered Court","address":"Tabon Covered Court, Quezon-Punta Baja Road, Alfonso XIII, Quezon, Palawan, Mimaropa, 5304, Philippines","capacity":null,"hazardTypes":null}},{"type":"Feature","geometry":{"type":"Point","coordinates":[117.7920129,9.1190555]},"properties":{"id":"way/986739340","osmId":986739340,"facilityType":"covered_court","name":"Quinlogan Covered Court","address":"Quinlogan Covered Court, 490, Quinlogan, Palawan, Mimaropa, Philippines","capacity":null,"hazardTypes":null}},{"type":"Feature","geometry":{"type":"Point","coordinates":[118.2067195,9.4729288]},"properties":{"id":"way/986923151","osmId":986923151,"facilityType":"covered_court","name":"Berong Covered Court","address":"Berong Covered Court, Berong, Palawan, Mimaropa, Philippines","capacity":null,"hazardTypes":null}},{"type":"Feature","geometry":{"type":"Point","coordinates":[118.111374,9.156111]},"properties":{"id":"way/985464747","osmId":985464747,"facilityType":"covered_court","name":"Abo-abo Covered Court","address":"Abo-abo Covered Court, Puerto Princesa South Road, Abo-abo, Palawan, Mimaropa, Philippines","capacity":null,"hazardTypes":null}},{"type":"Feature","geometry":{"type":"Point","coordinates":[117.9432156,8.8930409]},"properties":{"id":"way/985179325","osmId":985179325,"facilityType":"covered_court","name":"Maasin Covered Court","address":"Maasin Covered Court, Maasin, Palawan, Mimaropa, Philippines","capacity":null,"hazardTypes":null}},{"type":"Feature","geometry":{"type":"Point","coordinates":[118.0913054,9.1740547]},"properties":{"id":"way/985563227","osmId":985563227,"facilityType":"covered_court","name":"Ipilan Covered Court","address":"Ipilan Covered Court, Proper, Ipilan, Palawan, Mimaropa, Philippines","capacity":null,"hazardTypes":null}},{"type":"Feature","geometry":{"type":"Point","coordinates":[118.1760822,9.1652026]},"properties":{"id":"way/985563232","osmId":985563232,"facilityType":"covered_court","name":"Aramaywan Covered Court","address":"Aramaywan Covered Court, 490, Tacras, Palawan, Mimaropa, Philippines","capacity":null,"hazardTypes":null}},{"type":"Feature","geometry":{"type":"Point","coordinates":[118.1608829,9.159493]},"properties":{"id":"way/985563230","osmId":985563230,"facilityType":"covered_court","name":"Tacras Covered Court","address":"Tacras Covered Court, 490, Tacras, Palawan, Mimaropa, Philippines","capacity":null,"hazardTypes":null}},{"type":"Feature","geometry":{"type":"Point","coordinates":[117.7645127,9.0734877]},"properties":{"id":"way/985107565","osmId":985107565,"facilityType":"covered_court","name":"Bunog Covered Court","address":"Bunog Covered Court, 490, Bunog, Palawan, Mimaropa, Philippines","capacity":null,"hazardTypes":null}},{"type":"Feature","geometry":{"type":"Point","coordinates":[117.7938106,9.1658821]},"properties":{"id":"way/986739342","osmId":986739342,"facilityType":"covered_court","name":"Calumpang Covered Court","address":"Calumpang Covered Court, 490, Dumarogdog, Tagusao, Palawan, Mimaropa, Philippines","capacity":null,"hazardTypes":null}},{"type":"Feature","geometry":{"type":"Point","coordinates":[118.5607452,9.4442683]},"properties":{"id":"way/961293956","osmId":961293956,"facilityType":"covered_court","name":"Covered Court","address":"Covered Court, S. Socrates Street, San Juan, Palawan, Mimaropa, 5302, Philippines","capacity":null,"hazardTypes":null}},{"type":"Feature","geometry":{"type":"Point","coordinates":[122.8448267,9.5200813]},"properties":{"id":"way/1270589022","osmId":1270589022,"facilityType":"covered_court","name":"Tabuan Covered Court","address":"Tabuan Covered Court, Bayawan - Mabinay Road, Gamao, Bayawan, Negros Oriental, Negros Island Region, Philippines","capacity":null,"hazardTypes":null}},{"type":"Feature","geometry":{"type":"Point","coordinates":[122.8064514,9.362117]},"properties":{"id":"way/363429455","osmId":363429455,"facilityType":"covered_court","name":"Tinago Covered Court","address":"Tinago Covered Court, T. Diao Street, Tinago, Bayawan, Negros Oriental, Negros Island Region, 6221, Philippines","capacity":null,"hazardTypes":null}},{"type":"Feature","geometry":{"type":"Point","coordinates":[122.7960027,9.3697859]},"properties":{"id":"way/1133150186","osmId":1133150186,"facilityType":"covered_court","name":"Banga Covered Court","address":"Banga Covered Court, Dumaguete South Road, Banga, Malabugas, Bayawan, Negros Oriental, Negros Island Region, Philippines","capacity":null,"hazardTypes":null}},{"type":"Feature","geometry":{"type":"Point","coordinates":[122.77758,9.5771884]},"properties":{"id":"way/1266814565","osmId":1266814565,"facilityType":"covered_court","name":"Kalamtukan Covered Court","address":"Kalamtukan Covered Court, Bayawan - Kabankalan Road, Damig, Villasol, Bayawan, Negros Oriental, Negros Island Region, Philippines","capacity":null,"hazardTypes":null}},{"type":"Feature","geometry":{"type":"Point","coordinates":[122.7996337,9.3618258]},"properties":{"id":"way/692645652","osmId":692645652,"facilityType":"covered_court","name":"Suba Covered Court","address":"Suba Covered Court, Pacifico Quindo Sr. Street, Suba, Bayawan, Negros Oriental, Negros Island Region, Philippines","capacity":null,"hazardTypes":null}},{"type":"Feature","geometry":{"type":"Point","coordinates":[122.8106376,9.5040484]},"properties":{"id":"way/1266814577","osmId":1266814577,"facilityType":"covered_court","name":"Kalumboyan Covered Court","address":"Kalumboyan Covered Court, Bayawan-Kabankalan Road, Purok 2, Baisan, Kalumboyan, Bayawan, Negros Oriental, Negros Island Region, 6221, Philippines","capacity":null,"hazardTypes":null}},{"type":"Feature","geometry":{"type":"Point","coordinates":[122.7398146,9.5000235]},"properties":{"id":"way/1263963037","osmId":1263963037,"facilityType":"covered_court","name":"Tayawan Covered Court","address":"Tayawan Covered Court, Kalumboyan - Tayawan Road, Uban-Uban, Tayawan, Bayawan, Negros Oriental, Negros Island Region, Philippines","capacity":null,"hazardTypes":null}},{"type":"Feature","geometry":{"type":"Point","coordinates":[122.8914728,9.6015921]},"properties":{"id":"way/1052679434","osmId":1052679434,"facilityType":"covered_court","name":"Cambagahan Covered Court","address":"Cambagahan Covered Court, Cambagahan - Campanun-an Road, Caluy-ahan, Cambagahan, Bais, Negros Oriental, Negros Island Region, Philippines","capacity":null,"hazardTypes":null}},{"type":"Feature","geometry":{"type":"Point","coordinates":[122.8771746,9.2940005]},"properties":{"id":"way/1185424813","osmId":1185424813,"facilityType":"covered_court","name":"Cawitan Covered Court","address":"Cawitan Covered Court, Dumaguete South Road, Cawitan, Santa Catalina, Negros Oriental, Negros Island Region, 6220, Philippines","capacity":null,"hazardTypes":null}},{"type":"Feature","geometry":{"type":"Point","coordinates":[122.8375036,9.3520619]},"properties":{"id":"way/693861385","osmId":693861385,"facilityType":"covered_court","name":"Caranoche Covered Court","address":"Caranoche Covered Court, Dumaguete South Road, Caranoche, Santa Catalina, Negros Oriental, Negros Island Region, Philippines","capacity":null,"hazardTypes":null}},{"type":"Feature","geometry":{"type":"Point","coordinates":[122.8898676,9.2030062]},"properties":{"id":"way/990834559","osmId":990834559,"facilityType":"covered_court","name":"Mabuhay Covered Court","address":"Mabuhay Covered Court, Dumaguete South Road, Mabuhay, Santa Catalina, Negros Oriental, Negros Island Region, Philippines","capacity":null,"hazardTypes":null}},{"type":"Feature","geometry":{"type":"Point","coordinates":[122.6945266,9.3838432]},"properties":{"id":"way/1063110018","osmId":1063110018,"facilityType":"covered_court","name":"Actin Covered Court","address":"Actin Covered Court, Dumaguete South Road, Actin, Basay, Negros Oriental, Negros Island Region, Philippines","capacity":null,"hazardTypes":null}},{"type":"Feature","geometry":{"type":"Point","coordinates":[122.6564351,9.4400125]},"properties":{"id":"way/1063332938","osmId":1063332938,"facilityType":"covered_court","name":"Cabalayongan Covered Court","address":"Cabalayongan Covered Court, Dumaguete South Road, Poblacion, Bal-os, Basay, Negros Oriental, Negros Island Region, 6222, Philippines","capacity":null,"hazardTypes":null}},{"type":"Feature","geometry":{"type":"Point","coordinates":[122.514691,9.5506]},"properties":{"id":"way/1248993114","osmId":1248993114,"facilityType":"covered_court","name":"Asia Covered Court","address":"Asia Covered Court, Villanueva Street, Asia, Hinoba-an, Negros Occidental, Negros Island Region, Philippines","capacity":null,"hazardTypes":null}},{"type":"Feature","geometry":{"type":"Point","coordinates":[123.30213,9.3191716]},"properties":{"id":"way/367196900","osmId":367196900,"facilityType":"covered_court","name":"Daro Covered Court","address":"Daro Covered Court, Narra Street, Claytown, Daro, Dumaguete, Negros Oriental, Negros Island Region, 6200, Philippines","capacity":null,"hazardTypes":null}},{"type":"Feature","geometry":{"type":"Point","coordinates":[123.2987208,9.2935736]},"properties":{"id":"way/958716738","osmId":958716738,"facilityType":"covered_court","name":"Mangnao Covered Court","address":"Mangnao Covered Court, Lamberto Macias Avenue, Mangnao-Canal, Dumaguete, Negros Oriental, Negros Island Region, 6200, Philippines","capacity":null,"hazardTypes":null}},{"type":"Feature","geometry":{"type":"Point","coordinates":[123.2881354,9.3242402]},"properties":{"id":"way/1038157451","osmId":1038157451,"facilityType":"covered_court","name":"Pulantubig Covered Court","address":"Pulantubig Covered Court, L. Rovira West Road, Pulantubig, Dumaguete, Negros Oriental, Negros Island Region, 6200, Philippines","capacity":null,"hazardTypes":null}},{"type":"Feature","geometry":{"type":"Point","coordinates":[123.3099751,9.3020668]},"properties":{"id":"way/578695690","osmId":578695690,"facilityType":"covered_court","name":"Tinago Covered Court","address":"Tinago Covered Court, Luke E. Wright Street, Poblacion 1, Dumaguete, Negros Oriental, Negros Island Region, 6200, Philippines","capacity":null,"hazardTypes":null}},{"type":"Feature","geometry":{"type":"Point","coordinates":[123.2927482,9.3016773]},"properties":{"id":"way/1126832795","osmId":1126832795,"facilityType":"covered_court","name":"Bagacay Covered Court","address":"Bagacay Covered Court, Andres M. Lumjod Street, South Bagacay, Bagacay, Dumaguete, Negros Oriental, Negros Island Region, 6200, Philippines","capacity":null,"hazardTypes":null}},{"type":"Feature","geometry":{"type":"Point","coordinates":[123.2970804,9.2826614]},"properties":{"id":"way/1132346890","osmId":1132346890,"facilityType":"covered_court","name":"Banilad Covered Court","address":"Banilad Covered Court, Santo Niño Road, Banilad, Dumaguete, Negros Oriental, Negros Island Region, 6200, Philippines","capacity":null,"hazardTypes":null}},{"type":"Feature","geometry":{"type":"Point","coordinates":[123.289457,9.3139297]},"properties":{"id":"way/1130918229","osmId":1130918229,"facilityType":"covered_court","name":"Taclobo Covered Court","address":"Taclobo Covered Court, Montebon Drive, Bogo, Taclobo, Dumaguete, Negros Oriental, Negros Island Region, 6200, Philippines","capacity":null,"hazardTypes":null}},{"type":"Feature","geometry":{"type":"Point","coordinates":[123.2900507,9.3099263]},"properties":{"id":"way/1038157445","osmId":1038157445,"facilityType":"covered_court","name":"Batinguel Covered Court","address":"Batinguel Covered Court, Dumaguete - Palinpinon Road, Scandinavian Housing, Batinguel, Dumaguete, Negros Oriental, Negros Island Region, 6200, Philippines","capacity":null,"hazardTypes":null}},{"type":"Feature","geometry":{"type":"Point","coordinates":[123.2719023,9.3027896]},"properties":{"id":"way/1184574284","osmId":1184574284,"facilityType":"covered_court","name":"Cadawinonan Covered Court","address":"Cadawinonan Covered Court, Dumaguete - Balugo Road, Cadawinonan, Dumaguete, Negros Oriental, Negros Island Region, 6200, Philippines","capacity":null,"hazardTypes":null}},{"type":"Feature","geometry":{"type":"Point","coordinates":[123.2690352,9.3047925]},"properties":{"id":"way/1128119968","osmId":1128119968,"facilityType":"covered_court","name":"Housing Project Covered Court","address":"Housing Project Covered Court, Dumaguete - Balugo Road, Cadawinonan, Dumaguete, Negros Oriental, Negros Island Region, 6200, Philippines","capacity":null,"hazardTypes":null}},{"type":"Feature","geometry":{"type":"Point","coordinates":[123.2567221,9.3085216]},"properties":{"id":"way/676431476","osmId":676431476,"facilityType":"covered_court","name":"Balugo Covered Court","address":"Balugo Covered Court, E. Buling Street, Balugo, Dumaguete, Negros Oriental, Negros Island Region, 6200, Philippines","capacity":null,"hazardTypes":null}},{"type":"Feature","geometry":{"type":"Point","coordinates":[123.2616668,9.3083006]},"properties":{"id":"way/1130918219","osmId":1130918219,"facilityType":"covered_court","name":"Habitat 1 Covered Court","address":"Habitat 1 Covered Court, I. Baro Drive, Habitat 1 Balugo, Balugo, Dumaguete, Negros Oriental, Negros Island Region, 6200, Philippines","capacity":null,"hazardTypes":null}},{"type":"Feature","geometry":{"type":"Point","coordinates":[123.0895402,9.5681344]},"properties":{"id":"way/727357287","osmId":727357287,"facilityType":"covered_court","name":"Basak Covered Court","address":"Basak Covered Court, Barangay Road to Basak, Common, Basak, Bais, Negros Oriental, Negros Island Region, 6206, Philippines","capacity":null,"hazardTypes":null}},{"type":"Feature","geometry":{"type":"Point","coordinates":[123.1107638,9.5870472]},"properties":{"id":"way/864526461","osmId":864526461,"facilityType":"covered_court","name":"La Paz Covered Court","address":"La Paz Covered Court, Bais-Cabanlutan Road, Hangyad, La Paz, Tamogong, Bais, Negros Oriental, Negros Island Region, 6206, Philippines","capacity":null,"hazardTypes":null}},{"type":"Feature","geometry":{"type":"Point","coordinates":[123.1530851,9.5939863]},"properties":{"id":"way/1194684720","osmId":1194684720,"facilityType":"covered_court","name":"Okiot Covered Court","address":"Okiot Covered Court, Tavera Street, San Jose, Barangay II, Capiñahan, Bais, Negros Oriental, Negros Island Region, 6206, Philippines","capacity":null,"hazardTypes":null}},{"type":"Feature","geometry":{"type":"Point","coordinates":[123.3194827,9.4202936]},"properties":{"id":"way/1104336178","osmId":1104336178,"facilityType":"covered_court","name":"Looc Covered Court","address":"Looc Covered Court, Looc, Liloan, Santander, Cebu, Central Visayas, Philippines","capacity":null,"hazardTypes":null}},{"type":"Feature","geometry":{"type":"Point","coordinates":[123.3019142,9.4323165]},"properties":{"id":"way/509136223","osmId":509136223,"facilityType":"covered_court","name":"Canlumacad Covered Court","address":"Canlumacad Covered Court, Natalio Bacalso Avenue, Canlumacad, Santander, Cebu, Central Visayas, 6026, Philippines","capacity":null,"hazardTypes":null}},{"type":"Feature","geometry":{"type":"Point","coordinates":[123.3417689,9.4384326]},"properties":{"id":"way/959008568","osmId":959008568,"facilityType":"covered_court","name":"Liptong Covered Court","address":"Liptong Covered Court, Natalio Bacalso Avenue, Pasil, Santander, Cebu, Central Visayas, 6026, Philippines","capacity":null,"hazardTypes":null}},{"type":"Feature","geometry":{"type":"Point","coordinates":[123.3277224,9.4354776]},"properties":{"id":"way/959000871","osmId":959000871,"facilityType":"covered_court","name":"Bunlan Covered Court","address":"Bunlan Covered Court, Natalio Bacalso Avenue, Looc, Liloan, Santander, Cebu, Central Visayas, 6026, Philippines","capacity":null,"hazardTypes":null}},{"type":"Feature","geometry":{"type":"Point","coordinates":[123.1053618,9.5326191]},"properties":{"id":"way/1042181257","osmId":1042181257,"facilityType":"covered_court","name":"Santa Cruz Viejo Covered Court","address":"Santa Cruz Viejo Covered Court, Dumaguete North Road, Santa Cruz Viejo, Tanjay, Negros Oriental, Negros Island Region, 6204, Philippines","capacity":null,"hazardTypes":null}},{"type":"Feature","geometry":{"type":"Point","coordinates":[123.1452147,9.4836178]},"properties":{"id":"way/867580738","osmId":867580738,"facilityType":"covered_court","name":"Azagra Covered Court","address":"Azagra Covered Court, Pamplona-Azagra Road, Malalangsi, Tanjay, Negros Oriental, Negros Island Region, 6204, Philippines","capacity":null,"hazardTypes":null}},{"type":"Feature","geometry":{"type":"Point","coordinates":[123.179558,9.4822491]},"properties":{"id":"way/1235998059","osmId":1235998059,"facilityType":"covered_court","name":"Polo Covered Court","address":"Polo Covered Court, Dumaguete North Road, Polo, Tanjay, Negros Oriental, Negros Island Region, 6203, Philippines","capacity":null,"hazardTypes":null}},{"type":"Feature","geometry":{"type":"Point","coordinates":[123.1325768,9.5155266]},"properties":{"id":"way/1235998068","osmId":1235998068,"facilityType":"covered_court","name":"San Jose Covered Court","address":"San Jose Covered Court, Dumaguete North Road, Santa Cruz Viejo, Tanjay, Negros Oriental, Negros Island Region, 6204, Philippines","capacity":null,"hazardTypes":null}},{"type":"Feature","geometry":{"type":"Point","coordinates":[123.1596457,9.5203307]},"properties":{"id":"way/1226890631","osmId":1226890631,"facilityType":"covered_court","name":"Poblacion III Covered Court","address":"Poblacion III Covered Court, Zamora Street, Poblacion III, Tanjay, Negros Oriental, Negros Island Region, 6204, Philippines","capacity":null,"hazardTypes":null}},{"type":"Feature","geometry":{"type":"Point","coordinates":[123.0298183,9.5141098]},"properties":{"id":"way/1235874035","osmId":1235874035,"facilityType":"covered_court","name":"Pal-ew Covered Court","address":"Pal-ew Covered Court, Inawasan-Mamburao Road, Mamburao, Pamplona, Negros Oriental, Negros Island Region, 6205, Philippines","capacity":null,"hazardTypes":null}},{"type":"Feature","geometry":{"type":"Point","coordinates":[123.1646928,9.5013354]},"properties":{"id":"way/1234318958","osmId":1234318958,"facilityType":"covered_court","name":"Tugas Covered Court","address":"Tugas Covered Court, Dumaguete North Road, Tugas, Tanjay, Negros Oriental, Negros Island Region, 6204, Philippines","capacity":null,"hazardTypes":null}},{"type":"Feature","geometry":{"type":"Point","coordinates":[123.1114525,9.5011018]},"properties":{"id":"way/991428579","osmId":991428579,"facilityType":"covered_court","name":"Novallas Covered Court","address":"Novallas Covered Court, Poblacion - Malalangsi Road, Poblacion, Malalangsi, Pamplona, Negros Oriental, Negros Island Region, 6204, Philippines","capacity":null,"hazardTypes":null}},{"type":"Feature","geometry":{"type":"Point","coordinates":[122.936503,9.5143592]},"properties":{"id":"way/1235998086","osmId":1235998086,"facilityType":"covered_court","name":"Sto. Niño Covered Court","address":"Sto. Niño Covered Court, Bayawan - Mabinay Road, Ali-is, Bayawan, Negros Oriental, Negros Island Region, Philippines","capacity":null,"hazardTypes":null}},{"type":"Feature","geometry":{"type":"Point","coordinates":[123.0369375,9.4803723]},"properties":{"id":"way/867214179","osmId":867214179,"facilityType":"covered_court","name":"Bahi-an Covered Court","address":"Bahi-an Covered Court, Inawasan-Mamburao Road, Mamburao, Pamplona, Negros Oriental, Negros Island Region, 6205, Philippines","capacity":null,"hazardTypes":null}},{"type":"Feature","geometry":{"type":"Point","coordinates":[123.1327495,9.5297286]},"properties":{"id":"way/1041987750","osmId":1041987750,"facilityType":"covered_court","name":"Manipis Covered Court","address":"Manipis Covered Court, Dumaguete North Road, Santa Cruz Viejo, Tanjay, Negros Oriental, Negros Island Region, 6204, Philippines","capacity":null,"hazardTypes":null}},{"type":"Feature","geometry":{"type":"Point","coordinates":[123.3777377,9.4617068]},"properties":{"id":"way/1104854519","osmId":1104854519,"facilityType":"covered_court","name":"Tan-awan Covered Court","address":"Tan-awan Covered Court, Natalio Bacalso Avenue, Tan-awan, Oslob, Cebu, Central Visayas, Philippines","capacity":null,"hazardTypes":null}},{"type":"Feature","geometry":{"type":"Point","coordinates":[123.359569,9.4329675]},"properties":{"id":"way/1104854509","osmId":1104854509,"facilityType":"covered_court","name":"Mainit Covered Court","address":"Mainit Covered Court, Natalio Bacalso Avenue, Mainit, Oslob, Cebu, Central Visayas, Philippines","capacity":null,"hazardTypes":null}},{"type":"Feature","geometry":{"type":"Point","coordinates":[123.3647376,9.4856302]},"properties":{"id":"way/958717880","osmId":958717880,"facilityType":"covered_court","name":"Tumalog Covered Court","address":"Tumalog Covered Court, Tumalog, Oslob, Cebu, Central Visayas, 6026, Philippines","capacity":null,"hazardTypes":null}},{"type":"Feature","geometry":{"type":"Point","coordinates":[123.4059655,9.5002369]},"properties":{"id":"way/1104854529","osmId":1104854529,"facilityType":"covered_court","name":"Hagdan Covered Court","address":"Hagdan Covered Court, Natalio Bacalso Avenue, Daanlungsod, Hagdan, Oslob, Cebu, Central Visayas, 6025, Philippines","capacity":null,"hazardTypes":null}},{"type":"Feature","geometry":{"type":"Point","coordinates":[123.2135345,9.3121184]},"properties":{"id":"way/1155351268","osmId":1155351268,"facilityType":"covered_court","name":"Cambucad Covered Court","address":"Cambucad Covered Court, Palinpinon - Malaunay Road, Cambucad, Pulangbato, Valencia, Negros Oriental, Negros Island Region, 6215, Philippines","capacity":null,"hazardTypes":null}},{"type":"Feature","geometry":{"type":"Point","coordinates":[123.1767516,9.306072]},"properties":{"id":"way/750970381","osmId":750970381,"facilityType":"covered_court","name":"Malaunay Covered Court","address":"Malaunay Covered Court, Malaunay - Inas Road, Malaunay, Valencia, Negros Oriental, Negros Island Region, 6215, Philippines","capacity":null,"hazardTypes":null}},{"type":"Feature","geometry":{"type":"Point","coordinates":[123.2573774,9.2724967]},"properties":{"id":"way/1231904039","osmId":1231904039,"facilityType":"covered_court","name":"Balayagmanok Covered Court","address":"Balayagmanok Covered Court, Valencia–Bacong Road, Balayagmanok, Valencia, Negros Oriental, Negros Island Region, 6215, Philippines","capacity":null,"hazardTypes":null}},{"type":"Feature","geometry":{"type":"Point","coordinates":[123.2419384,9.3149487]},"properties":{"id":"way/1150739265","osmId":1150739265,"facilityType":"covered_court","name":"Palinpinon Covered Court","address":"Palinpinon Covered Court, Palinpinon - Malaunay Road, Tierra Alta, Palinpinon, Sagbang, Valencia, Negros Oriental, Negros Island Region, 6215, Philippines","capacity":null,"hazardTypes":null}},{"type":"Feature","geometry":{"type":"Point","coordinates":[123.2295244,9.26262]},