{"type":"FeatureCollection","features":[{"type":"Feature","geometry":{"type":"Point","coordinates":[124.3752479,6.3381527]},"properties":{"id":"node/11084644474","osmId":11084644474,"facilityType":"evacuation","name":"Baluan Evacuation Assembly Area","address":"Baluan Evacuation Assembly Area, Purok 1, Sultan Kudarat, Soccsksargen, Philippines","capacity":"100-250","hazardTypes":["flood","earthquake","landslide"]}},{"type":"Feature","geometry":{"type":"Point","coordinates":[125.4837451,7.1414207]},"properties":{"id":"way/1060515972","osmId":1060515972,"facilityType":"evacuation","name":"Regional Evacuation Center","address":"Regional Evacuation Center, Relocation, Tugbok District, Davao City, Davao Region, 8000, Philippines","capacity":null,"hazardTypes":null}},{"type":"Feature","geometry":{"type":"Point","coordinates":[125.407671,6.8598811]},"properties":{"id":"way/692909114","osmId":692909114,"facilityType":"evacuation","name":"Loay Evacuation Center","address":"Loay Evacuation Center, Mount Loay Trail, Loay, Santa Cruz, Davao del Sur, Davao Region, 8001, Philippines","capacity":null,"hazardTypes":null}},{"type":"Feature","geometry":{"type":"Point","coordinates":[123.2058763,7.8508634]},"properties":{"id":"node/11178026437","osmId":11178026437,"facilityType":"evacuation","name":"Barangay Lukuan Evacuation Center","address":"Barangay Lukuan Evacuation Center, Tubod-Lakewood Road, Tubod, Zamboanga del Sur, Zamboanga Peninsula, 7014, Philippines","capacity":null,"hazardTypes":null}},{"type":"Feature","geometry":{"type":"Point","coordinates":[123.7107493,7.9129514]},"properties":{"id":"node/6377465202","osmId":6377465202,"facilityType":"evacuation","name":"Evacuation Area","address":"Evacuation Area, Linamon-Zamboanga Road, Purok 2, Donggo-an, Lanao del Norte, Northern Mindanao, Philippines","capacity":null,"hazardTypes":null}},{"type":"Feature","geometry":{"type":"Point","coordinates":[123.7512976,7.9113217]},"properties":{"id":"node/6075360628","osmId":6075360628,"facilityType":"evacuation","name":"Pinoyak Evacuation Center","address":"Pinoyak Evacuation Center, Linamon-Zamboanga Road, Nilo, Maranding, Lanao del Norte, Northern Mindanao, 9211, Philippines","capacity":null,"hazardTypes":null}},{"type":"Feature","geometry":{"type":"Point","coordinates":[124.2336429,7.1973918]},"properties":{"id":"way/471666277","osmId":471666277,"facilityType":"evacuation","name":"Evacuation Center","address":"Evacuation Center, Malagapas Street, San Pablo Village, Cotabato City, Bangsamoro, 9600, Philippines","capacity":null,"hazardTypes":null}},{"type":"Feature","geometry":{"type":"Point","coordinates":[125.3320444,7.9336547]},"properties":{"id":"way/964447241","osmId":964447241,"facilityType":"evacuation","name":"Evacuation Center","address":"Evacuation Center, Cabanglasan-San Fernando Road, Purok 3, Mahayag, Nacabuklad, San Fernando, Bukidnon, Northern Mindanao, 8711, Philippines","capacity":null,"hazardTypes":null}},{"type":"Feature","geometry":{"type":"Point","coordinates":[125.6307907,7.214877]},"properties":{"id":"way/1066315506","osmId":1066315506,"facilityType":"evacuation","name":"Mahayag Evacuation Center","address":"Mahayag Evacuation Center, Purok 9, Bunawan District, Mahayag, Davao City, Davao Region, 8000, Philippines","capacity":null,"hazardTypes":null}},{"type":"Feature","geometry":{"type":"Point","coordinates":[125.7904047,7.4220046]},"properties":{"id":"way/758611236","osmId":758611236,"facilityType":"evacuation","name":"Tagum City Evacuation Center","address":"Tagum City Evacuation Center, Timog Avenue, Kahayag, Apokon, Tagum, Davao del Norte, Davao Region, 8100, Philippines","capacity":null,"hazardTypes":null}},{"type":"Feature","geometry":{"type":"Point","coordinates":[125.9928022,7.5807461]},"properties":{"id":"way/1382477806","osmId":1382477806,"facilityType":"evacuation","name":"Provincial Evacuation Center","address":"Provincial Evacuation Center, Purok 1-A, Davao de Oro Provincial Capitol, Nabunturan, Davao de Oro, Davao Region, 8800, Philippines","capacity":null,"hazardTypes":null}},{"type":"Feature","geometry":{"type":"Point","coordinates":[126.0502134,7.9774345]},"properties":{"id":"node/4023010651","osmId":4023010651,"facilityType":"evacuation","name":"Barangay Patrocinio Evacuation Center","address":"Barangay Patrocinio Evacuation Center, A. Bustillo Drive, Patrocinio, Santa Josefa, Agusan del Sur, Caraga, 8512, Philippines","capacity":null,"hazardTypes":null}},{"type":"Feature","geometry":{"type":"Point","coordinates":[123.8468335,8.1407848]},"properties":{"id":"node/11184793037","osmId":11184793037,"facilityType":"evacuation","name":"Evacuation Center and Multi-Purpose Building","address":"Evacuation Center and Multi-Purpose Building, Cotta Road, Baybay Triunfo, Ozamiz, Misamis Occidental, Northern Mindanao, 7200, Philippines","capacity":null,"hazardTypes":null}},{"type":"Feature","geometry":{"type":"Point","coordinates":[124.2256227,8.1103569]},"properties":{"id":"node/4935178995","osmId":4935178995,"facilityType":"evacuation","name":"Kalahi Evacuation Center","address":"Kalahi Evacuation Center, Iligan-Marawi Road, Purok 8, Adapun-ali, Lanao del Norte, Northern Mindanao, 9217, Philippines","capacity":null,"hazardTypes":null}},{"type":"Feature","geometry":{"type":"Point","coordinates":[124.2691494,8.2644908]},"properties":{"id":"way/142432374","osmId":142432374,"facilityType":"evacuation","name":"Franciscan Third Order Regular Evacuation Center","address":"Franciscan Third Order Regular Evacuation Center, Iligan-Bukidnon Road, Maria Cristina Gardens, Santa Filomena, Iligan, Northern Mindanao, 9200, Philippines","capacity":null,"hazardTypes":null}},{"type":"Feature","geometry":{"type":"Point","coordinates":[124.2504601,8.2437394]},"properties":{"id":"way/142431024","osmId":142431024,"facilityType":"evacuation","name":"Evacuation Center - Franciscan Seminary","address":"Evacuation Center - Franciscan Seminary, Andres Bonifacio Avenue, Purok 6B, Luinab, Iligan, Northern Mindanao, 9200, Philippines","capacity":null,"hazardTypes":null}},{"type":"Feature","geometry":{"type":"Point","coordinates":[124.4540746,8.6187871]},"properties":{"id":"way/785264414","osmId":785264414,"facilityType":"evacuation","name":"Evacuation Center Laguindingan","address":"Evacuation Center Laguindingan, Perimeter Service Road, Purok 2, Moog, Misamis Oriental, Northern Mindanao, 9019, Philippines","capacity":null,"hazardTypes":null}},{"type":"Feature","geometry":{"type":"Point","coordinates":[124.5723537,8.5215713]},"properties":{"id":"way/746793380","osmId":746793380,"facilityType":"evacuation","name":"Multi Purpose Evacuation Center","address":"Multi Purpose Evacuation Center, Suriel Street, Opol, Misamis Oriental, Northern Mindanao, 9017, Philippines","capacity":null,"hazardTypes":null}},{"type":"Feature","geometry":{"type":"Point","coordinates":[125.3016346,8.0756498]},"properties":{"id":"way/1149577545","osmId":1149577545,"facilityType":"evacuation","name":"Evacuation center","address":"Evacuation center, J. Aureo Street, Poblacion, Cabanglasan, Bukidnon, Northern Mindanao, 8723, Philippines","capacity":null,"hazardTypes":null}},{"type":"Feature","geometry":{"type":"Point","coordinates":[125.3013814,8.0759785]},"properties":{"id":"way/1396716022","osmId":1396716022,"facilityType":"evacuation","name":"Evacuation center","address":"Evacuation center, J. Aureo Street, Poblacion, Cabanglasan, Bukidnon, Northern Mindanao, 8723, Philippines","capacity":null,"hazardTypes":null}},{"type":"Feature","geometry":{"type":"Point","coordinates":[125.301844,8.0758135]},"properties":{"id":"way/1396716024","osmId":1396716024,"facilityType":"evacuation","name":"Evacuation center","address":"Evacuation center, Banglas IV Street, Poblacion, Cabanglasan, Bukidnon, Northern Mindanao, 8723, Philippines","capacity":null,"hazardTypes":null}},{"type":"Feature","geometry":{"type":"Point","coordinates":[125.6575908,8.6794451]},"properties":{"id":"way/961780085","osmId":961780085,"facilityType":"evacuation","name":"Esperanza Evacuation Center","address":"Esperanza Evacuation Center, Esperanza Rotunda, Poblacion, Esperanza, Agusan del Sur, Caraga, 8513, Philippines","capacity":null,"hazardTypes":null}},{"type":"Feature","geometry":{"type":"Point","coordinates":[125.9790291,8.5034833]},"properties":{"id":"way/326042426","osmId":326042426,"facilityType":"evacuation","name":"Barangay 5 Evacuation Center","address":"Barangay 5 Evacuation Center, Yakal Avenue, Barangay 5, Poblacion, Karaos, San Francisco, Agusan del Sur, Caraga, 8501, Philippines","capacity":null,"hazardTypes":null}},{"type":"Feature","geometry":{"type":"Point","coordinates":[126.0794949,8.6215494]},"properties":{"id":"node/4043025397","osmId":4043025397,"facilityType":"evacuation","name":"Payasan Evacuation Area","address":"Payasan Evacuation Area, Surigao-Davao Coastal Road, Purok 1, Pugad, Payasan, Surigao del Sur, Caraga, 8307, Philippines","capacity":null,"hazardTypes":null}},{"type":"Feature","geometry":{"type":"Point","coordinates":[122.8122916,9.3682119]},"properties":{"id":"way/1133164240","osmId":1133164240,"facilityType":"evacuation","name":"Poblacion Evacuation Center","address":"Poblacion Evacuation Center, Bayawan - Kabankalan Road, Poblacion, Villareal, Bayawan, Negros Oriental, Negros Island Region, Philippines","capacity":null,"hazardTypes":null}},{"type":"Feature","geometry":{"type":"Point","coordinates":[122.9308459,9.1065927]},"properties":{"id":"node/11786176349","osmId":11786176349,"facilityType":"evacuation","name":"Evacuation Area","address":"Evacuation Area, Giligaon, Siaton, Negros Oriental, Negros Island Region, Philippines","capacity":null,"hazardTypes":null}},{"type":"Feature","geometry":{"type":"Point","coordinates":[123.2705716,9.3254983]},"properties":{"id":"way/1119998623","osmId":1119998623,"facilityType":"evacuation","name":"Camanjac Multi-Purpose & Evacuation Center","address":"Camanjac Multi-Purpose & Evacuation Center, L. Rovira West Road, Maisan, Camanjac, Dumaguete, Negros Oriental, Negros Island Region, 6201, Philippines","capacity":null,"hazardTypes":null}},{"type":"Feature","geometry":{"type":"Point","coordinates":[123.1215012,9.5907846]},"properties":{"id":"way/591103062","osmId":591103062,"facilityType":"evacuation","name":"Bais City Evacuation Center","address":"Bais City Evacuation Center, Burgos Street, San Jose, Barangay I, Capiñahan, Bais, Negros Oriental, Negros Island Region, 6206, Philippines","capacity":null,"hazardTypes":null}},{"type":"Feature","geometry":{"type":"Point","coordinates":[123.1313474,9.59383]},"properties":{"id":"way/860570252","osmId":860570252,"facilityType":"evacuation","name":"Barangay II Evacuation & Multi-Purpose Center","address":"Barangay II Evacuation & Multi-Purpose Center, Juan Luna Street, San Jose, Barangay II, Capiñahan, Bais, Negros Oriental, Negros Island Region, 6206, Philippines","capacity":null,"hazardTypes":null}},{"type":"Feature","geometry":{"type":"Point","coordinates":[123.3446603,9.4544287]},"properties":{"id":"way/959006960","osmId":959006960,"facilityType":"evacuation","name":"Candamiang Evacuation Center","address":"Candamiang Evacuation Center, Natalio Bacalso Avenue, Mainit, Oslob, Cebu, Central Visayas, 6026, Philippines","capacity":null,"hazardTypes":null}},{"type":"Feature","geometry":{"type":"Point","coordinates":[123.3511047,9.4253852]},"properties":{"id":"way/1104846898","osmId":1104846898,"facilityType":"evacuation","name":"Pasil Evacuation Center","address":"Pasil Evacuation Center, Natalio Bacalso Avenue, Pasil, Santander, Cebu, Central Visayas, 6026, Philippines","capacity":null,"hazardTypes":null}},{"type":"Feature","geometry":{"type":"Point","coordinates":[123.3040366,9.4548716]},"properties":{"id":"way/177424814","osmId":177424814,"facilityType":"evacuation","name":"Talisay Evacuation Center","address":"Talisay Evacuation Center, Talisay, Santander, Cebu, Central Visayas, 6026, Philippines","capacity":null,"hazardTypes":null}},{"type":"Feature","geometry":{"type":"Point","coordinates":[123.1378313,9.5176088]},"properties":{"id":"node/12278822804","osmId":12278822804,"facilityType":"evacuation","name":"Tanjay City Evacuation and Operation Center","address":"Tanjay City Evacuation and Operation Center, Dumaguete North Road, San Isidro, San Jose, Tanjay, Negros Oriental, Negros Island Region, 6204, Philippines","capacity":null,"hazardTypes":null}},{"type":"Feature","geometry":{"type":"Point","coordinates":[123.3059616,9.5415678]},"properties":{"id":"way/1102809040","osmId":1102809040,"facilityType":"evacuation","name":"Suba Evacuation Center","address":"Suba Evacuation Center, Samboan-Barili Road, Poblacion, Suba, Samboan, Cebu, Central Visayas, 6027, Philippines","capacity":null,"hazardTypes":null}},{"type":"Feature","geometry":{"type":"Point","coordinates":[123.2116312,9.4544456]},"properties":{"id":"node/5577512422","osmId":5577512422,"facilityType":"evacuation","name":"Regional Evacuation Center","address":"Regional Evacuation Center, Jugno - Silab Road, Jugno, Silab, Amlan, Negros Oriental, Negros Island Region, 6203, Philippines","capacity":null,"hazardTypes":null}},{"type":"Feature","geometry":{"type":"Point","coordinates":[123.6522777,9.2554039]},"properties":{"id":"node/8076747558","osmId":8076747558,"facilityType":"evacuation","name":"Enrique Villanueva Evacuation Center","address":"Enrique Villanueva Evacuation Center, Siquijor Circumferential Road, Bino-ongan, Libo, Enrique Villanueva, Siquijor, Negros Island Region, 6230, Philippines","capacity":null,"hazardTypes":null}},{"type":"Feature","geometry":{"type":"Point","coordinates":[123.5439911,9.2103992]},"properties":{"id":"way/1099855661","osmId":1099855661,"facilityType":"evacuation","name":"Cang-isad Evacuation Center","address":"Cang-isad Evacuation Center, Siquijor Circumferential Road, Candanay Norte, Siquijor, Negros Island Region, 6225, Philippines","capacity":null,"hazardTypes":null}},{"type":"Feature","geometry":{"type":"Point","coordinates":[123.5168406,9.1692005]},"properties":{"id":"way/1096451273","osmId":1096451273,"facilityType":"evacuation","name":"Candura Barangay Evacuation Center","address":"Candura Barangay Evacuation Center, Silk Road, Can-asagan, San Juan, Siquijor, Negros Island Region, 6227, Philippines","capacity":null,"hazardTypes":null}},{"type":"Feature","geometry":{"type":"Point","coordinates":[123.5077509,9.14482]},"properties":{"id":"way/746541805","osmId":746541805,"facilityType":"evacuation","name":"Tubod Evacuation Center","address":"Tubod Evacuation Center, Siquijor Circumferential Road, Tag-ibo, San Juan, Siquijor, Negros Island Region, 6227, Philippines","capacity":null,"hazardTypes":null}},{"type":"Feature","geometry":{"type":"Point","coordinates":[125.4789415,8.9385658]},"properties":{"id":"way/686003779","osmId":686003779,"facilityType":"evacuation","name":"DRR Evacuation","address":"DRR Evacuation, Butuan Diversion Road, Bancasi, Butuan, Caraga, Philippines","capacity":null,"hazardTypes":null}},{"type":"Feature","geometry":{"type":"Point","coordinates":[125.2004039,9.0029655]},"properties":{"id":"way/1312948750","osmId":1312948750,"facilityType":"evacuation","name":"Kibungsod Evacuation Center","address":"Kibungsod Evacuation Center, Magsaysay, Kibungsod, Magsaysay, Misamis Oriental, Northern Mindanao, 9015, Philippines","capacity":null,"hazardTypes":null}},{"type":"Feature","geometry":{"type":"Point","coordinates":[119.261095,10.236194]},"properties":{"id":"node/6269604143","osmId":6269604143,"facilityType":"evacuation","name":"Evacuation Assembly Point","address":"Evacuation Assembly Point, Provincial Road, Salvacion, Roxas, Palawan, Mimaropa, Philippines","capacity":null,"hazardTypes":null}},{"type":"Feature","geometry":{"type":"Point","coordinates":[122.8834828,10.4186606]},"properties":{"id":"way/986515420","osmId":986515420,"facilityType":"evacuation","name":"Sibucao Evacuation Center","address":"Sibucao Evacuation Center, Bagonawa - La Castellana - Isabela Road, Makawiwili, Sibucao, San Enrique, Negros Occidental, Negros Island Region, 6104, Philippines","capacity":null,"hazardTypes":null}},{"type":"Feature","geometry":{"type":"Point","coordinates":[123.7828317,10.2726088]},"properties":{"id":"way/1413001661","osmId":1413001661,"facilityType":"evacuation","name":"Camarin Evacuation and Multipurpose Center","address":"Camarin Evacuation and Multipurpose Center, H. Alipar Street, Manduang, Cebu, Central Visayas, 6046, Philippines","capacity":null,"hazardTypes":null}},{"type":"Feature","geometry":{"type":"Point","coordinates":[123.7823624,10.2597157]},"properties":{"id":"way/1413001660","osmId":1413001660,"facilityType":"evacuation","name":"Cadulawan Evacuation and Multipurpose Center","address":"Cadulawan Evacuation and Multipurpose Center, Tres de Mayo Street, Teves, Cadulawan, Cebu, Central Visayas, 6046, Philippines","capacity":null,"hazardTypes":null}},{"type":"Feature","geometry":{"type":"Point","coordinates":[123.4381658,9.962848]},"properties":{"id":"way/1119284335","osmId":1119284335,"facilityType":"evacuation","name":"Lawaan Evacuation Center","address":"Lawaan Evacuation Center, Argao - Ronda Road, Can-abujon, Cebu, Central Visayas, 6034, Philippines","capacity":null,"hazardTypes":null}},{"type":"Feature","geometry":{"type":"Point","coordinates":[123.4291679,10.0456371]},"properties":{"id":"way/1359188602","osmId":1359188602,"facilityType":"evacuation","name":"Li-ong Barangay Evacuation Shelter","address":"Li-ong Barangay Evacuation Shelter, Samboan-Barili Road, Poblacion Central, Poblacion, Dumanjug, Cebu, Central Visayas, 6035, Philippines","capacity":null,"hazardTypes":null}},{"type":"Feature","geometry":{"type":"Point","coordinates":[123.4645851,10.091304]},"properties":{"id":"way/763347560","osmId":763347560,"facilityType":"evacuation","name":"Kanyuko Evacuation Center","address":"Kanyuko Evacuation Center, Dumanjug, Kanyuko, Cebu, Central Visayas, 6035, Philippines","capacity":null,"hazardTypes":null}},{"type":"Feature","geometry":{"type":"Point","coordinates":[123.9688678,10.3703582]},"properties":{"id":"way/1340207550","osmId":1340207550,"facilityType":"evacuation","name":"Consolacion Evacuation Area","address":"Consolacion Evacuation Area, Governor F. B. Harrison Avenue, Laray, Consolacion, Cebu, Central Visayas, 6001, Philippines","capacity":null,"hazardTypes":null}},{"type":"Feature","geometry":{"type":"Point","coordinates":[123.9604118,10.2633293]},"properties":{"id":"way/1137576649","osmId":1137576649,"facilityType":"evacuation","name":"Cordova Evacuation Center","address":"Cordova Evacuation Center, Dinagat Street, Ajoya Subdivision, Dapitan, Cordova, Cebu, Central Visayas, 6017, Philippines","capacity":null,"hazardTypes":null}},{"type":"Feature","geometry":{"type":"Point","coordinates":[124.3617371,9.6580744]},"properties":{"id":"way/708173575","osmId":708173575,"facilityType":"evacuation","name":"Regional Evacuation Center","address":"Regional Evacuation Center, Jagna - Sierra Bullones Road, Ka Bogoy, Jagna, Bohol, Central Visayas, 6308, Philippines","capacity":null,"hazardTypes":null}},{"type":"Feature","geometry":{"type":"Point","coordinates":[124.4025727,9.6997453]},"properties":{"id":"way/730057273","osmId":730057273,"facilityType":"evacuation","name":"evacuation center","address":"evacuation center, Tagbilaran East Road, Purok 1, Madua Norte, Duero, Bohol, Central Visayas, 6309, Philippines","capacity":null,"hazardTypes":null}},{"type":"Feature","geometry":{"type":"Point","coordinates":[124.4910287,9.8174568]},"properties":{"id":"way/656392769","osmId":656392769,"facilityType":"evacuation","name":"Evacuation Building","address":"Evacuation Building, Tagbilaran East Road, Poblacion, Candijay, Bohol, Central Visayas, 6312, Philippines","capacity":null,"hazardTypes":null}},{"type":"Feature","geometry":{"type":"Point","coordinates":[124.9874138,10.4020731]},"properties":{"id":"way/1002476358","osmId":1002476358,"facilityType":"evacuation","name":"Evacuation Center","address":"Evacuation Center, Mahaplag-Liloan-Sogod Road, Zone 2, Sogod, Southern Leyte, Eastern Visayas, Philippines","capacity":null,"hazardTypes":null}},{"type":"Feature","geometry":{"type":"Point","coordinates":[125.1741299,10.2667315]},"properties":{"id":"way/951933764","osmId":951933764,"facilityType":"evacuation","name":"Evacuation Center","address":"Evacuation Center, Himay-angan-Silago-Abuyog Boundary Road, Poblacion, San Juan, Southern Leyte, Eastern Visayas, 6611, Philippines","capacity":null,"hazardTypes":null}},{"type":"Feature","geometry":{"type":"Point","coordinates":[125.281242,9.9132279]},"properties":{"id":"way/1138599695","osmId":1138599695,"facilityType":"evacuation","name":"San Ricardo Evacuation Center","address":"San Ricardo Evacuation Center, Liloan – San Ricardo Road, Poblacion, Alangalang, San Antonio, Southern Leyte, Eastern Visayas, 6617, Philippines","capacity":null,"hazardTypes":null}},{"type":"Feature","geometry":{"type":"Point","coordinates":[119.2559367,10.5270944]},"properties":{"id":"way/438485161","osmId":438485161,"facilityType":"evacuation","name":"San Vicente Multi-Purpose Buidling & Evacuation Center","address":"San Vicente Multi-Purpose Buidling & Evacuation Center, Poblacion, San Vicente, Roxas, Palawan, Mimaropa, 5309, Philippines","capacity":null,"hazardTypes":null}},{"type":"Feature","geometry":{"type":"Point","coordinates":[121.9488389,10.8003395]},"properties":{"id":"way/1394870512","osmId":1394870512,"facilityType":"evacuation","name":"Antique Regional Evacuation Center","address":"Antique Regional Evacuation Center, Real Street, Madrangca, Poblacion, San Fernando, San Jose de Buenavista, Antique, Western Visayas, 5700, Philippines","capacity":null,"hazardTypes":null}},{"type":"Feature","geometry":{"type":"Point","coordinates":[121.9382988,10.7638494]},"properties":{"id":"node/12884911346","osmId":12884911346,"facilityType":"evacuation","name":"Brgy. Funda-Dalipe Evacuation Center","address":"Brgy. Funda-Dalipe Evacuation Center, Real Street, Madrangca, Poblacion, San Fernando, San Jose de Buenavista, Antique, Western Visayas, 5700, Philippines","capacity":null,"hazardTypes":null}},{"type":"Feature","geometry":{"type":"Point","coordinates":[122.1306399,10.8742871]},"properties":{"id":"node/12054891119","osmId":12054891119,"facilityType":"evacuation","name":"San Remigio Evacuation Center","address":"San Remigio Evacuation Center, Bugo Bridge, San Rafael, San Remigio, Antique, Western Visayas, 5714, Philippines","capacity":null,"hazardTypes":null}},{"type":"Feature","geometry":{"type":"Point","coordinates":[122.2956073,10.7920175]},"properties":{"id":"node/4700621936","osmId":4700621936,"facilityType":"evacuation","name":"Tubungan Evacuation Center","address":"Tubungan Evacuation Center, TEC Road, Tapuranga, Male, Iloilo, Western Visayas, 5027, Philippines","capacity":null,"hazardTypes":null}},{"type":"Feature","geometry":{"type":"Point","coordinates":[122.5556078,10.696484]},"properties":{"id":"way/1264402110","osmId":1264402110,"facilityType":"evacuation","name":"Motorpool Evacuation Route","address":"Motorpool Evacuation Route, City Engineering Office Motorpool, City Proper, Iloilo City, Western Visayas, 5000, Philippines","capacity":null,"hazardTypes":null}},{"type":"Feature","geometry":{"type":"Point","coordinates":[122.5180314,10.6858012]},"properties":{"id":"way/1060219520","osmId":1060219520,"facilityType":"evacuation","name":"Evacuation Route","address":"Evacuation Route, San Jose, Villa de Arevalo, Bonifacio, Iloilo City, Western Visayas, 5000, Philippines","capacity":null,"hazardTypes":null}},{"type":"Feature","geometry":{"type":"Point","coordinates":[122.5203955,10.7030625]},"properties":{"id":"way/1264430943","osmId":1264430943,"facilityType":"evacuation","name":"Iloilo City Evacuation Center","address":"Iloilo City Evacuation Center, President Corazon C. Aquino Avenue, So-oc, Villa de Arevalo, Calajunan, Iloilo City, Western Visayas, 5000, Philippines","capacity":null,"hazardTypes":null}},{"type":"Feature","geometry":{"type":"Point","coordinates":[122.563297,10.7137324]},"properties":{"id":"node/8900005353","osmId":8900005353,"facilityType":"evacuation","name":"WVSU/Evacuation Center","address":"WVSU/Evacuation Center, Jose Balagot Avenue, Railway, La Paz, Calubihan, Iloilo City, Western Visayas, 5000, Philippines","capacity":null,"hazardTypes":null}},{"type":"Feature","geometry":{"type":"Point","coordinates":[123.4068736,10.4843337]},"properties":{"id":"node/8265523086","osmId":8265523086,"facilityType":"evacuation","name":"San Carlos City Regional Evacuation Center","address":"San Carlos City Regional Evacuation Center, Eco Tourism Highway, Teacher's Village, San Carlos, Negros Occidental, Negros Island Region, 6127, Philippines","capacity":null,"hazardTypes":null}},{"type":"Feature","geometry":{"type":"Point","coordinates":[123.9588327,10.803801]},"properties":{"id":"way/1231892128","osmId":1231892128,"facilityType":"evacuation","name":"Takay Evacuation Center","address":"Takay Evacuation Center, Borbon – Tabuelan Road, Takay, Cebu, Central Visayas, 6007, Philippines","capacity":null,"hazardTypes":null}},{"type":"Feature","geometry":{"type":"Point","coordinates":[124.5501028,11.0401453]},"properties":{"id":"way/1413998406","osmId":1413998406,"facilityType":"evacuation","name":"Lilo-an Barangay Evacuation Center","address":"Lilo-an Barangay Evacuation Center, Merida-Ormoc Road, Lilo-an, Ormoc, Leyte, Eastern Visayas, 6541, Philippines","capacity":null,"hazardTypes":null}},{"type":"Feature","geometry":{"type":"Point","coordinates":[124.5385605,10.9988546]},"properties":{"id":"node/9499965795","osmId":9499965795,"facilityType":"evacuation","name":"San juan Evacuation Center","address":"San juan Evacuation Center, Ormoc Coastal Diversion Road, Manga, San Juan, Ormoc, Leyte, Eastern Visayas, 6541, Philippines","capacity":null,"hazardTypes":null}},{"type":"Feature","geometry":{"type":"Point","coordinates":[124.8918522,10.9740212]},"properties":{"id":"way/542681099","osmId":542681099,"facilityType":"evacuation","name":"Civic & Evacuation Center","address":"Civic & Evacuation Center, Poblacion District VII, Local Government Unit of Burauen, San Diego, Poblacion District 9, Burauen, 2nd District, Leyte, Eastern Visayas, 6516, Philippines","capacity":null,"hazardTypes":null}},{"type":"Feature","geometry":{"type":"Point","coordinates":[124.9048926,11.0597239]},"properties":{"id":"way/1216973777","osmId":1216973777,"facilityType":"evacuation","name":"Dagami Evacuation Center","address":"Dagami Evacuation Center, Dagami-Burauen Road, Poblacion, Canlinga, Lusad Poblacion, Dagami, 2nd District, Leyte, Eastern Visayas, 6515, Philippines","capacity":null,"hazardTypes":null}},{"type":"Feature","geometry":{"type":"Point","coordinates":[124.9625053,10.6028556]},"properties":{"id":"way/1233213892","osmId":1233213892,"facilityType":"evacuation","name":"Evacuation Center","address":"Evacuation Center, Maharlika Highway, San Vicente, Sitio Cabelic, San Isidro, Mahaplag, 5th District, Leyte, Eastern Visayas, 6512, Philippines","capacity":null,"hazardTypes":null}},{"type":"Feature","geometry":{"type":"Point","coordinates":[125.0041995,10.4903888]},"properties":{"id":"way/247603708","osmId":247603708,"facilityType":"evacuation","name":"Kahupian Evacuation Center","address":"Kahupian Evacuation Center, Maharlika Highway, Pancho Villa, Kahupian, Southern Leyte, Eastern Visayas, Philippines","capacity":null,"hazardTypes":null}},{"type":"Feature","geometry":{"type":"Point","coordinates":[125.6947108,11.0430409]},"properties":{"id":"node/9067487924","osmId":9067487924,"facilityType":"evacuation","name":"United Nations Evacuation Center: Tubabao, Guiuan, Silangang Samar","address":"United Nations Evacuation Center: Tubabao, Guiuan, Silangang Samar, San Jose Street, Lupok, Lapa, Guiuan, Eastern Samar, Eastern Visayas, 6808, Philippines","capacity":null,"hazardTypes":null}},{"type":"Feature","geometry":{"type":"Point","coordinates":[120.0154295,12.0352875]},"properties":{"id":"way/1034706434","osmId":1034706434,"facilityType":"evacuation","name":"evacuation center","address":"evacuation center, Busuanga Loop, Dipuyay, Coron, Palawan, Mimaropa, Philippines","capacity":null,"hazardTypes":null}},{"type":"Feature","geometry":{"type":"Point","coordinates":[122.6860393,11.3941552]},"properties":{"id":"way/608567107","osmId":608567107,"facilityType":"evacuation","name":"Dao Evacuation Center","address":"Dao Evacuation Center, San Agustin Street, Poblacion Ilawod, Dao, Capiz, Western Visayas, 5810, Philippines","capacity":null,"hazardTypes":null}},{"type":"Feature","geometry":{"type":"Point","coordinates":[123.9179154,11.8709906]},"properties":{"id":"way/535119263","osmId":535119263,"facilityType":"evacuation","name":"Placer Main Evacuation Center","address":"Placer Main Evacuation Center, Estonilo Street, Daanlungsod, Placer, Masbate, Bicol Region, Philippines","capacity":null,"hazardTypes":null}},{"type":"Feature","geometry":{"type":"Point","coordinates":[124.413788,11.5776715]},"properties":{"id":"way/1061647504","osmId":1061647504,"facilityType":"evacuation","name":"Evacuation Facility","address":"Evacuation Facility, Grandstand, Naval, Biliran, Eastern Visayas, 6560, Philippines","capacity":null,"hazardTypes":null}},{"type":"Feature","geometry":{"type":"Point","coordinates":[124.7258877,11.269042]},"properties":{"id":"way/534476626","osmId":534476626,"facilityType":"evacuation","name":"Evacuation Center","address":"Evacuation Center, Route 70, Abango, Barugo, 2nd District, Leyte, Eastern Visayas, 6519, Philippines","capacity":null,"hazardTypes":null}},{"type":"Feature","geometry":{"type":"Point","coordinates":[124.6870435,11.3007844]},"properties":{"id":"way/533126214","osmId":533126214,"facilityType":"evacuation","name":"Municipal Disaster Risk Reduction and Management Office / Evacuation Center","address":"Municipal Disaster Risk Reduction and Management Office / Evacuation Center, Rebolledo Street, Bulod, Baybay, Carigara, 2nd District, Leyte, Eastern Visayas, 6529, Philippines","capacity":null,"hazardTypes":null}},{"type":"Feature","geometry":{"type":"Point","coordinates":[124.6753289,11.2933207]},"properties":{"id":"way/1198175295","osmId":1198175295,"facilityType":"evacuation","name":"Bislig Evacuation Center","address":"Bislig Evacuation Center, Route 70, Tangnan, Carigara, 2nd District, Leyte, Eastern Visayas, 6529, Philippines","capacity":null,"hazardTypes":null}},{"type":"Feature","geometry":{"type":"Point","coordinates":[124.6652274,11.2749476]},"properties":{"id":"way/247341616","osmId":247341616,"facilityType":"evacuation","name":"Evacuation Center","address":"Evacuation Center, Route 70, Bulod, Nauguisan, Carigara, 2nd District, Leyte, Eastern Visayas, 6529, Philippines","capacity":null,"hazardTypes":null}},{"type":"Feature","geometry":{"type":"Point","coordinates":[125.451623,11.6323561]},"properties":{"id":"way/1318972478","osmId":1318972478,"facilityType":"evacuation","name":"Evacuation Center","address":"Evacuation Center, Purok 1, Borongan, Eastern Samar, Eastern Visayas, 6800, Philippines","capacity":null,"hazardTypes":null}},{"type":"Feature","geometry":{"type":"Point","coordinates":[125.023805,11.7722831]},"properties":{"id":"way/1156208970","osmId":1156208970,"facilityType":"evacuation","name":"Paranas Evacuation Center","address":"Paranas Evacuation Center, Maharlika Highway, Lipata, Samar, Eastern Visayas, 6702, Philippines","capacity":null,"hazardTypes":null}},{"type":"Feature","geometry":{"type":"Point","coordinates":[125.0370919,11.675239]},"properties":{"id":"node/6072274594","osmId":6072274594,"facilityType":"evacuation","name":"Barangay Evacuation Center","address":"Barangay Evacuation Center, Maharlika Highway, Balogo, Hinabangan, Samar, Eastern Visayas, 6703, Philippines","capacity":null,"hazardTypes":null}},{"type":"Feature","geometry":{"type":"Point","coordinates":[120.2928765,12.0544025]},"properties":{"id":"way/1027594270","osmId":1027594270,"facilityType":"evacuation","name":"Evacuation center","address":"Evacuation center, over flowing bridge, Borac, Coron, Palawan, Mimaropa, Philippines","capacity":null,"hazardTypes":null}},{"type":"Feature","geometry":{"type":"Point","coordinates":[121.0530662,12.222724]},"properties":{"id":"node/5604478421","osmId":5604478421,"facilityType":"evacuation","name":"Bankal Evacuation Center","address":"Bankal Evacuation Center, Pagui, Bangkal, San Jose, Occidental Mindoro, Mimaropa, 5100, Philippines","capacity":null,"hazardTypes":null}},{"type":"Feature","geometry":{"type":"Point","coordinates":[122.273248,12.5782246]},"properties":{"id":"way/1243084461","osmId":1243084461,"facilityType":"evacuation","name":"Romblon Evacuation Center","address":"Romblon Evacuation Center, Governor Fetalvero Street, Poblacion 1, Bagacay, Romblon, Mimaropa, 5500, Philippines","capacity":null,"hazardTypes":null}},{"type":"Feature","geometry":{"type":"Point","coordinates":[123.4971172,12.4714141]},"properties":{"id":"way/316331473","osmId":316331473,"facilityType":"evacuation","name":"Valdemoro Sports Complex and Evacuation Center","address":"Valdemoro Sports Complex and Evacuation Center, Chavez Street, Poblacion, Baleno, Masbate, Bicol Region, 5413, Philippines","capacity":null,"hazardTypes":null}},{"type":"Feature","geometry":{"type":"Point","coordinates":[124.0313776,12.7071849]},"properties":{"id":"way/1009521102","osmId":1009521102,"facilityType":"evacuation","name":"Irosin Evacuation Center","address":"Irosin Evacuation Center, Maharlika Highway, San Julian, San Pedro, Sorsogon, Bicol Region, 4707, Philippines","capacity":null,"hazardTypes":null}},{"type":"Feature","geometry":{"type":"Point","coordinates":[125.3006574,12.3183915]},"properties":{"id":"way/452960371","osmId":452960371,"facilityType":"evacuation","name":"Evacuation Center","address":"Evacuation Center, Lapinig Road, Lapinig, Northern Samar, Eastern Visayas, 6423, Philippines","capacity":null,"hazardTypes":null}},{"type":"Feature","geometry":{"type":"Point","coordinates":[120.6062341,13.2213943]},"properties":{"id":"way/442161886","osmId":442161886,"facilityType":"evacuation","name":"Provincial Evacuation Center","address":"Provincial Evacuation Center, Capitol Road, RVQ Homes, Provincial Capitol Comp., Mamburao, Occidental Mindoro, Mimaropa, 5106, Philippines","capacity":null,"hazardTypes":null}},{"type":"Feature","geometry":{"type":"Point","coordinates":[121.1918392,13.3067571]},"properties":{"id":"way/1082265800","osmId":1082265800,"facilityType":"evacuation","name":"Evacuation Area","address":"Evacuation Area, Calapan South Road, Bucayao, Calapan, Oriental Mindoro, Mimaropa, Philippines","capacity":null,"hazardTypes":null}},{"type":"Feature","geometry":{"type":"Point","coordinates":[121.8295714,13.4592516]},"properties":{"id":"node/5431397425","osmId":5431397425,"facilityType":"evacuation","name":"Health, Nutrition and Evacuation Center","address":"Health, Nutrition and Evacuation Center, Barangy Lupac, Tabigue, Boac, 1st District, Marinduque, Mimaropa, 4900, Philippines","capacity":null,"hazardTypes":null}},{"type":"Feature","geometry":{"type":"Point","coordinates":[121.4044269,13.054626]},"properties":{"id":"node/6853067669","osmId":6853067669,"facilityType":"evacuation","name":"Evacuation Center","address":"Evacuation Center, D. Paderes Street, Zone IIII, Socorro, Oriental Mindoro, Mimaropa, 5207, Philippines","capacity":null,"hazardTypes":null}},{"type":"Feature","geometry":{"type":"Point","coordinates":[121.4577345,12.8616975]},"properties":{"id":"way/1190950321","osmId":1190950321,"facilityType":"evacuation","name":"Bansud Evacuation Center","address":"Bansud Evacuation Center, Macatangay Street, Bansud, Oriental Mindoro, Mimaropa, 5210, Philippines","capacity":null,"hazardTypes":null}},{"type":"Feature","geometry":{"type":"Point","coordinates":[123.2087576,13.6275968]},"properties":{"id":"way/1251520067","osmId":1251520067,"facilityType":"evacuation","name":"PAGCOR Multipurpose and Evacuation Center","address":"PAGCOR Multipurpose and Evacuation Center, Access Road, Balatas, Naga City, Bicol Region, 4400, Philippines","capacity":null,"hazardTypes":null}},{"type":"Feature","geometry":{"type":"Point","coordinates":[123.2407802,13.5901785]},"properties":{"id":"way/1183871644","osmId":1183871644,"facilityType":"evacuation","name":"Milaor Evacuation Center","address":"Milaor Evacuation Center, CWC Road, Cadlan, Camarines Sur, Bicol Region, 4418, Philippines","capacity":null,"hazardTypes":null}},{"type":"Feature","geometry":{"type":"Point","coordinates":[123.3762362,13.5836792]},"properties":{"id":"way/1201861843","osmId":1201861843,"facilityType":"evacuation","name":"Del Rosario Evacuation Center","address":"Del Rosario Evacuation Center, Del Rosario Road, Del Rosario, Camarines Sur, Bicol Region, Philippines","capacity":null,"hazardTypes":null}},{"type":"Feature","geometry":{"type":"Point","coordinates":[123.7855604,13.2620755]},"properties":{"id":"way/837715080","osmId":837715080,"facilityType":"evacuation","name":"San Andres Evacuation Center","address":"San Andres Evacuation Center, Bikal-San Andres-San Fernando Road, San Andres, Santo Domingo, Albay, Bicol Region, 4508, Philippines","capacity":null,"hazardTypes":null}},{"type":"Feature","geometry":{"type":"Point","coordinates":[123.7098548,13.0757778]},"properties":{"id":"way/1136122677","osmId":1136122677,"facilityType":"evacuation","name":"Daraga Evacuation Center","address":"Daraga Evacuation Center, Maharlika Highway, Purok 1, Purok 4, Anislag, Daraga, Albay, Bicol Region, 4501, Philippines","capacity":null,"hazardTypes":null}},{"type":"Feature","geometry":{"type":"Point","coordinates":[123.7016817,13.0743488]},"properties":{"id":"way/1006022406","osmId":1006022406,"facilityType":"evacuation","name":"Anislag Permanent Evacuation Center","address":"Anislag Permanent Evacuation Center, Maharlika Highway, Purok 1, Purok 4, Anislag, Daraga, Albay, Bicol Region, Philippines","capacity":null,"hazardTypes":null}},{"type":"Feature","geometry":{"type":"Point","coordinates":[123.7391177,13.0920409]},"properties":{"id":"way/783374421","osmId":783374421,"facilityType":"evacuation","name":"Homapon Evacuation Center","address":"Homapon Evacuation Center, Mariawa - Homapon Road, Homapon, Mariawa, Legazpi, Albay, Bicol Region, 4500, Philippines","capacity":null,"hazardTypes":null}},{"type":"Feature","geometry":{"type":"Point","coordinates":[123.4204769,13.4814572]},"properties":{"id":"way/1183631023","osmId":1183631023,"facilityType":"evacuation","name":"Sta. Teresita Evacuation Center","address":"Sta. Teresita Evacuation Center, Iriga City-San Isidro-Sagrada- San Ramon-Hanawan Road, Santa Teresita, Camarines Sur, Bicol Region, 4431, Philippines","capacity":null,"hazardTypes":null}},{"type":"Feature","geometry":{"type":"Point","coordinates":[123.5991671,13.2749945]},"properties":{"id":"way/1255931692","osmId":1255931692,"facilityType":"evacuation","name":"Albay Provincial Campsite and Evacuation Center","address":"Albay Provincial Campsite and Evacuation Center, Ligao - Tabaco Road, Basag, Albay, Bicol Region, Philippines","capacity":null,"hazardTypes":null}},{"type":"Feature","geometry":{"type":"Point","coordinates":[123.6551161,13.137049]},"properties":{"id":"way/1180618249","osmId":1180618249,"facilityType":"evacuation","name":"Camalig Bungkaras Evacuation Center","address":"Camalig Bungkaras Evacuation Center, Comun-Inarado-Peñafrancia Road, Binitayan, Taladong, Albay, Bicol Region, 4502, Philippines","capacity":null,"hazardTypes":null}},{"type":"Feature","geometry":{"type":"Point","coordinates":[123.5992804,13.149048]},"properties":{"id":"way/1180622519","osmId":1180622519,"facilityType":"evacuation","name":"Mauraro Evacuation Center","address":"Mauraro Evacuation Center, General Simeon A. Ola Road, Mauraro, Albay, Bicol Region, 4503, Philippines","capacity":null,"hazardTypes":null}},{"type":"Feature","geometry":{"type":"Point","coordinates":[123.529875,13.2365468]},"properties":{"id":"way/1178544288","osmId":1178544288,"facilityType":"evacuation","name":"PAGCOR Evacuation Building","address":"PAGCOR Evacuation Building, Ligao-Pio Duran Road, Dunao, Santa Cruz, Albay, Bicol Region, 4504, Philippines","capacity":null,"hazardTypes":null}},{"type":"Feature","geometry":{"type":"Point","coordinates":[123.7202702,13.3685663]},"properties":{"id":"way/997701145","osmId":997701145,"facilityType":"evacuation","name":"Pawa Evacuation Center","address":"Pawa Evacuation Center, Legazpi-Santo Domingo-Tabaco Road, Bombon, Tabaco, Albay, Bicol Region, 4511, Philippines","capacity":null,"hazardTypes":null}},{"type":"Feature","geometry":{"type":"Point","coordinates":[123.6791425,13.3491623]},"properties":{"id":"way/1180613475","osmId":1180613475,"facilityType":"evacuation","name":"San Antonio Evacuation Center","address":"San Antonio Evacuation Center, Ligao - Tabaco Road, San Antonio, Tabaco, Albay, Bicol Region, 4511, Philippines","capacity":null,"hazardTypes":null}},{"type":"Feature","geometry":{"type":"Point","coordinates":[123.6744024,13.4588058]},"properties":{"id":"way/1169253298","osmId":1169253298,"facilityType":"evacuation","name":"Tiwi Evacuation and Multi-Purpose Center","address":"Tiwi Evacuation and Multi-Purpose Center, Tiwi-Tabaco National Road, Cararayan, Albay, Bicol Region, 4513, Philippines","capacity":null,"hazardTypes":null}},{"type":"Feature","geometry":{"type":"Point","coordinates":[123.6672669,12.9265585]},"properties":{"id":"way/1038589219","osmId":1038589219,"facilityType":"evacuation","name":"Marifosque Evacuation Center","address":"Marifosque Evacuation Center, Putiao – Pilar – Donsol Road, POI-C Village, Marifosque, Pilar, Sorsogon, Bicol Region, 4714, Philippines","capacity":null,"hazardTypes":null}},{"type":"Feature","geometry":{"type":"Point","coordinates":[123.6756712,12.9233103]},"properties":{"id":"way/404544677","osmId":404544677,"facilityType":"evacuation","name":"Binanuahan Evacuation Center (LGU)","address":"Binanuahan Evacuation Center (LGU), San Vicente, Binanuahan, Marifosque, Pilar, Sorsogon, Bicol Region, 4714, Philippines","capacity":null,"hazardTypes":null}},{"type":"Feature","geometry":{"type":"Point","coordinates":[123.6730155,12.9550297]},"properties":{"id":"way/1044623411","osmId":1044623411,"facilityType":"evacuation","name":"Mabanate Evacuation Center","address":"Mabanate Evacuation Center, Putiao – Pilar – Donsol Road, Mabanate, Pilar, Sorsogon, Bicol Region, Philippines","capacity":null,"hazardTypes":null}},{"type":"Feature","geometry":{"type":"Point","coordinates":[123.6748229,12.9257002]},"properties":{"id":"way/1044623410","osmId":1044623410,"facilityType":"evacuation","name":"Banuyo Evacuation Center","address":"Banuyo Evacuation Center, San Vicente, Banuyo, Marifosque, Pilar, Sorsogon, Bicol Region, 4714, Philippines","capacity":null,"hazardTypes":null}},{"type":"Feature","geometry":{"type":"Point","coordinates":[123.7179097,12.8931003]},"properties":{"id":"way/740210946","osmId":740210946,"facilityType":"evacuation","name":"Lungib Evacuation Center","address":"Lungib Evacuation Center, Purok 1, Lungib, Pilar, Sorsogon, Bicol Region, Philippines","capacity":null,"hazardTypes":null}},{"type":"Feature","geometry":{"type":"Point","coordinates":[123.75216,12.98632]},"properties":{"id":"node/9611967593","osmId":9611967593,"facilityType":"evacuation","name":"Del Rosario Evacuation Center","address":"Del Rosario Evacuation Center, Maharlika Highway, Del Rosario, Pilar, Sorsogon, Bicol Region, Philippines","capacity":null,"hazardTypes":null}},{"type":"Feature","geometry":{"type":"Point","coordinates":[123.7127778,13.020333]},"properties":{"id":"node/9611967610","osmId":9611967610,"facilityType":"evacuation","name":"Putiao Evacuation Center","address":"Putiao Evacuation Center, Putiao – Pilar – Donsol Road, Putiao, Pilar, Sorsogon, Bicol Region, Philippines","capacity":null,"hazardTypes":null}},{"type":"Feature","geometry":{"type":"Point","coordinates":[120.7265208,13.9832038]},"properties":{"id":"way/865193324","osmId":865193324,"facilityType":"evacuation","name":"Guinhawa Evacuation Center","address":"Guinhawa Evacuation Center, Tuy-Balayan Road, Guinhawa, Tuy, Batangas, Calabarzon, 4214, Philippines","capacity":null,"hazardTypes":null}},{"type":"Feature","geometry":{"type":"Point","coordinates":[121.1059536,14.3144879]},"properties":{"id":"way/525866002","osmId":525866002,"facilityType":"evacuation","name":"Regional Evacuation Center - Santa Rosa City","address":"Regional Evacuation Center - Santa Rosa City, Tiongco Subdivision, Santa Rosa, Laguna, Calabarzon, Philippines","capacity":null,"hazardTypes":null}},{"type":"Feature","geometry":{"type":"Point","coordinates":[121.1196894,13.8098468]},"properties":{"id":"way/979720545","osmId":979720545,"facilityType":"evacuation","name":"Bago Fitness Gym and Evacuation Center","address":"Bago Fitness Gym and Evacuation Center, Batangas-Ibaan Road, Coliat, Bago, Ibaan, Batangas, Calabarzon, 4230, Philippines","capacity":null,"hazardTypes":null}},{"type":"Feature","geometry":{"type":"Point","coordinates":[121.0530918,13.7696084]},"properties":{"id":"way/770984542","osmId":770984542,"facilityType":"evacuation","name":"Batangas City Evacuation Center","address":"Batangas City Evacuation Center, National Highway 436, Bolbok, Batangas, Calabarzon, 4200, Philippines","capacity":null,"hazardTypes":null}},{"type":"Feature","geometry":{"type":"Point","coordinates":[120.8836751,14.4087923]},"properties":{"id":"way/584406345","osmId":584406345,"facilityType":"evacuation","name":"Antel Grand Evacuation Center","address":"Antel Grand Evacuation Center, General Antonio Luna Street, Bacao II, General Trias, Cavite, Calabarzon, 4107, Philippines","capacity":null,"hazardTypes":null}},{"type":"Feature","geometry":{"type":"Point","coordinates":[120.8856924,14.4310868]},"properties":{"id":"way/1164775406","osmId":1164775406,"facilityType":"evacuation","name":"San Jose II Multipurpose Hall & Evacuation Center","address":"San Jose II Multipurpose Hall & Evacuation Center, A. Bonifacio Street, San Jose I, Noveleta, Cavite, Calabarzon, 4105, Philippines","capacity":null,"hazardTypes":null}},{"type":"Feature","geometry":{"type":"Point","coordinates":[121.1520512,14.1883436]},"properties":{"id":"node/11298025007","osmId":11298025007,"facilityType":"evacuation","name":"Evacuation Aseembly Point 2","address":"Evacuation Aseembly Point 2, Ring Road, La Mesa, Calamba, Laguna, Calabarzon, 4027, Philippines","capacity":null,"hazardTypes":null}},{"type":"Feature","geometry":{"type":"Point","coordinates":[121.1524804,14.1860279]},"properties":{"id":"node/11298014911","osmId":11298014911,"facilityType":"evacuation","name":"Evacuation Aseembly Point 1","address":"Evacuation Aseembly Point 1, Ring Road, La Mesa, Calamba, Laguna, Calabarzon, 4027, Philippines","capacity":null,"hazardTypes":null}},{"type":"Feature","geometry":{"type":"Point","coordinates":[121.325742,14.0696556]},"properties":{"id":"node/8242020786","osmId":8242020786,"facilityType":"evacuation","name":"VII-C Evacuation Map","address":"VII-C Evacuation Map, Rizal Avenue, VII-C, San Pablo, Laguna, Calabarzon, 4000, Philippines","capacity":null,"hazardTypes":null}},{"type":"Feature","geometry":{"type":"Point","coordinates":[121.3101722,14.0844551]},"properties":{"id":"node/7787800226","osmId":7787800226,"facilityType":"evacuation","name":"Del Remedio Evacuation Map","address":"Del Remedio Evacuation Map, Lieutenant Cosico Avenue, Doña Eusebia Subdivision, Del Remedio, San Pablo, Laguna, Calabarzon, 4000, Philippines","capacity":null,"hazardTypes":null}},{"type":"Feature","geometry":{"type":"Point","coordinates":[121.311235,14.052233]},"properties":{"id":"node/7850568230","osmId":7850568230,"facilityType":"evacuation","name":"San Gabriel Evacuation Map","address":"San Gabriel Evacuation Map, Don Ramon Street, San Gabriel, San Pablo, Laguna, Calabarzon, 4000, Philippines","capacity":null,"hazardTypes":null}},{"type":"Feature","geometry":{"type":"Point","coordinates":[121.3241887,14.0661393]},"properties":{"id":"node/8111673022","osmId":8111673022,"facilityType":"evacuation","name":"II-E (San Anton) Evacuation Map","address":"II-E (San Anton) Evacuation Map, Miguel Leonor Street, II-E, San Pablo, Laguna, Calabarzon, 4000, Philippines","capacity":null,"hazardTypes":null}},{"type":"Feature","geometry":{"type":"Point","coordinates":[121.3252904,14.0686244]},"properties":{"id":"node/9164893978","osmId":9164893978,"facilityType":"evacuation","name":"VII-D Evacuation Map","address":"VII-D Evacuation Map, A. Flores Street, VII-D, San Pablo, Laguna, Calabarzon, 4000, Philippines","capacity":null,"hazardTypes":null}},{"type":"Feature","geometry":{"type":"Point","coordinates":[121.3252918,14.0725272]},"properties":{"id":"node/8467173166","osmId":8467173166,"facilityType":"evacuation","name":"V-C Evacuation Map","address":"V-C Evacuation Map, Zulueta Street, V-C, San Pablo, Laguna, Calabarzon, 4000, Philippines","capacity":null,"hazardTypes":null}},{"type":"Feature","geometry":{"type":"Point","coordinates":[121.3231976,14.071149]},"properties":{"id":"node/8111673021","osmId":8111673021,"facilityType":"evacuation","name":"VI-A (Mavenida) Evacuation Map","address":"VI-A (Mavenida) Evacuation Map, Rizal Avenue, VI-A, San Pablo, Laguna, Calabarzon, 4000, Philippines","capacity":null,"hazardTypes":null}},{"type":"Feature","geometry":{"type":"Point","coordinates":[121.325993,14.0751323]},"properties":{"id":"node/8742575703","osmId":8742575703,"facilityType":"evacuation","name":"V-A Evacuation Map","address":"V-A Evacuation Map, Dagatan Boulevard, V-A, San Pablo, Laguna, Calabarzon, 4000, Philippines","capacity":null,"hazardTypes":null}},{"type":"Feature","geometry":{"type":"Point","coordinates":[120.9472254,14.2525636]},"properties":{"id":"relation/17632993","osmId":17632993,"facilityType":"evacuation","name":"Dasmariñas Evacuation Shelter","address":"Dasmariñas Evacuation Shelter, Humayao Interior Road, Langkaan 2, Langkaan, Dasmariñas, Cavite, Calabarzon, 4114, Philippines","capacity":null,"hazardTypes":null}},{"type":"Feature","geometry":{"type":"Point","coordinates":[120.9791726,14.2404684]},"properties":{"id":"way/608318053","osmId":608318053,"facilityType":"evacuation","name":"Evacuation Center","address":"Evacuation Center, G. R. Poblete Avenue, Biga I, Silang, Cavite, Calabarzon, 4118, Philippines","capacity":null,"hazardTypes":null}},{"type":"Feature","geometry":{"type":"Point","coordinates":[121.0235559,13.790809]},"properties":{"id":"way/455050131","osmId":455050131,"facilityType":"evacuation","name":"San Pascual Evacuation Center","address":"San Pascual Evacuation Center, Aquino Avenue, Poblacion, San Mateo, Bauan, Batangas, Calabarzon, 4204, Philippines","capacity":null,"hazardTypes":null}},{"type":"Feature","geometry":{"type":"Point","coordinates":[121.0240479,13.7905626]},"properties":{"id":"way/455050204","osmId":455050204,"facilityType":"evacuation","name":"Evacuation Operations Center","address":"Evacuation Operations Center, Aquino Avenue, Poblacion, San Mateo, Bauan, Batangas, Calabarzon, 4204, Philippines","capacity":null,"hazardTypes":null}},{"type":"Feature","geometry":{"type":"Point","coordinates":[120.9395403,14.099084]},"properties":{"id":"way/34615141","osmId":34615141,"facilityType":"evacuation","name":"Tagaytay Sports Center","address":"Tagaytay Sports Center, Crisanto M. De Los Reyes Avenue, Kaybagal South, Tagaytay, Cavite, Calabarzon, 4120, Philippines","capacity":null,"hazardTypes":null}},{"type":"Feature","geometry":{"type":"Point","coordinates":[121.4189626,14.2747571]},"properties":{"id":"node/8548038319","osmId":8548038319,"facilityType":"evacuation","name":"Provincial Warehouse Disaster and Evacuation Center","address":"Provincial Warehouse Disaster and Evacuation Center, Jose de Leon Street, Barangay I, Pagsawitan, Santa Cruz, Laguna, Calabarzon, 4009, Philippines","capacity":null,"hazardTypes":null}},{"type":"Feature","geometry":{"type":"Point","coordinates":[121.4846515,14.3573055]},"properties":{"id":"way/699652276","osmId":699652276,"facilityType":"evacuation","name":"Paete Municipal Evacuation Center","address":"Paete Municipal Evacuation Center, J.P. Rizal Street, Labac Hills, Quinale, Paete, Laguna, Calabarzon, 4016, Philippines","capacity":null,"hazardTypes":null}},{"type":"Feature","geometry":{"type":"Point","coordinates":[122.5897388,13.9277285]},"properties":{"id":"way/1024382039","osmId":1024382039,"facilityType":"evacuation","name":"Del Gallego Evacuation Center","address":"Del Gallego Evacuation Center, Andaya Highway, San Antonio, Poblacion, Magais I, Del Gallego, Camarines Sur, Bicol Region, 4411, Philippines","capacity":null,"hazardTypes":null}},{"type":"Feature","geometry":{"type":"Point","coordinates":[122.8130185,14.1666888]},"properties":{"id":"way/1190316144","osmId":1190316144,"facilityType":"evacuation","name":"Labo Evacuation Center","address":"Labo Evacuation Center, Maharlika Highway, Pinya, Poblacion, Labo, Camarines Norte, Bicol Region, Philippines","capacity":null,"hazardTypes":null}},{"type":"Feature","geometry":{"type":"Point","coordinates":[122.8931521,14.1214021]},"properties":{"id":"node/6696089056","osmId":6696089056,"facilityType":"evacuation","name":"Brgy. Sta. Cruz Evacuation Center","address":"Brgy. Sta. Cruz Evacuation Center, San Vicente - Talisay Road, Poblacion, Gabon, Camarines Norte, Bicol Region, 4602, Philippines","capacity":null,"hazardTypes":null}},{"type":"Feature","geometry":{"type":"Point","coordinates":[122.9565616,13.8306381]},"properties":{"id":"way/1183869410","osmId":1183869410,"facilityType":"evacuation","name":"Sipocot Evacuation Center","address":"Sipocot Evacuation Center, Maharlika Highway, Zone 1, Calagbangan, Camarines Sur, Bicol Region, Philippines","capacity":null,"hazardTypes":null}},{"type":"Feature","geometry":{"type":"Point","coordinates":[122.923902,14.1348873]},"properties":{"id":"way/712169433","osmId":712169433,"facilityType":"evacuation","name":"Evacuation Center","address":"Evacuation Center, Contreras Street, Poblacion, Talisay, Camarines Norte, Bicol Region, 4602, Philippines","capacity":null,"hazardTypes":null}},{"type":"Feature","geometry":{"type":"Point","coordinates":[120.2632303,14.7204689]},"properties":{"id":"node/1290508804","osmId":1290508804,"facilityType":"evacuation","name":"Tsunami Alert Evacuation Area","address":"Tsunami Alert Evacuation Area, Anvaya Cove Main Road, Anvaya Cove, Morong, Bataan, Central Luzon, 2108, Philippines","capacity":null,"hazardTypes":null}},{"type":"Feature","geometry":{"type":"Point","coordinates":[120.3856444,14.617226]},"properties":{"id":"way/112816757","osmId":112816757,"facilityType":"evacuation","name":"EVACUATION ROUTE","address":"EVACUATION ROUTE, Banawang, Bagac, Bataan, Central Luzon, 2107, Philippines","capacity":null,"hazardTypes":null}},{"type":"Feature","geometry":{"type":"Point","coordinates":[120.6566186,14.9997766]},"properties":{"id":"way/49475706","osmId":49475706,"facilityType":"evacuation","name":"Evacuation Road","address":"Evacuation Road, Cabambangan, Santa Ines, Pampanga, Central Luzon, 2001, Philippines","capacity":null,"hazardTypes":null}},{"type":"Feature","geometry":{"type":"Point","coordinates":[120.6544333,14.9938527]},"properties":{"id":"way/157966205","osmId":157966205,"facilityType":"evacuation","name":"Evacuation Road","address":"Evacuation Road, Purok 3, Santa Ines, Pampanga, Central Luzon, 2001, Philippines","capacity":null,"hazardTypes":null}},{"type":"Feature","geometry":{"type":"Point","coordinates":[120.3864466,14.6198398]},"properties":{"id":"way/474310033","osmId":474310033,"facilityType":"evacuation","name":"EVACUATION SITE","address":"EVACUATION SITE, Talisay Street, Banawang, Bagac, Bataan, Central Luzon, 2107, Philippines","capacity":null,"hazardTypes":null}},{"type":"Feature","geometry":{"type":"Point","coordinates":[120.6443627,14.9636316]},"properties":{"id":"way/838864402","osmId":838864402,"facilityType":"evacuation","name":"Municipal Evacuation Center of Guagua","address":"Municipal Evacuation Center of Guagua, Guagua-Minalin Road, Gawad Kalinga, Guagua, Pampanga, Central Luzon, 2004, Philippines","capacity":"250-500","hazardTypes":null}},{"type":"Feature","geometry":{"type":"Point","coordinates":[120.6440714,14.9633516]},"properties":{"id":"way/244796456","osmId":244796456,"facilityType":"evacuation","name":"MUNICIPAL EVACUATION CENTER","address":"MUNICIPAL EVACUATION CENTER, Guagua-Minalin Road, Gawad Kalinga, Guagua, Pampanga, Central Luzon, 2004, Philippines","capacity":null,"hazardTypes":null}},{"type":"Feature","geometry":{"type":"Point","coordinates":[120.6491811,14.9897943]},"properties":{"id":"way/772597959","osmId":772597959,"facilityType":"evacuation","name":"Cabetican Evacuation Center","address":"Cabetican Evacuation Center, Bacolor River Control Road, Purok 4, Bacolor, Pampanga, Central Luzon, 2001, Philippines","capacity":"<50","hazardTypes":null}},{"type":"Feature","geometry":{"type":"Point","coordinates":[120.6297236,14.9661619]},"properties":{"id":"way/889399841","osmId":889399841,"facilityType":"evacuation","name":"Santo Cristo Evacuation Center","address":"Santo Cristo Evacuation Center, Philippine Natianal Railway, Santo Cristo, San Pablo, Guagua, Pampanga, Central Luzon, 2003, Philippines","capacity":"<50","hazardTypes":null}},{"type":"Feature","geometry":{"type":"Point","coordinates":[120.6432685,14.9756118]},"properties":{"id":"node/3257662605","osmId":3257662605,"facilityType":"evacuation","name":"San Agustin Betis Church Evacuation Assembly Point","address":"San Agustin Betis Church Evacuation Assembly Point, Guagua Old National Highway, San Nicolas 2nd, Guagua, Pampanga, Central Luzon, 2003, Philippines","capacity":null,"hazardTypes":null}},{"type":"Feature","geometry":{"type":"Point","coordinates":[120.6456436,14.9764849]},"properties":{"id":"node/2983977178","osmId":2983977178,"facilityType":"evacuation","name":"Betis Evacuation Pick-up Point","address":"Betis Evacuation Pick-up Point, Guagua Old National Highway, San Nicolas 2nd, Guagua, Pampanga, Central Luzon, 2003, Philippines","capacity":null,"hazardTypes":null}},{"type":"Feature","geometry":{"type":"Point","coordinates":[120.6476826,14.9823518]},"properties":{"id":"node/2983974019","osmId":2983974019,"facilityType":"evacuation","name":"evacuation pick up point san miguel basketball court","address":"evacuation pick up point san miguel basketball court, Philippine National Railway, Purok 5, Guagua, Pampanga, Central Luzon, 2003, Philippines","capacity":null,"hazardTypes":null}},{"type":"Feature","geometry":{"type":"Point","coordinates":[120.6511013,14.9852541]},"properties":{"id":"node/2983970340","osmId":2983970340,"facilityType":"evacuation","name":"Evacuation Pick Up Point West Mega Dike","address":"Evacuation Pick Up Point West Mega Dike, Megadike West Road, Purok 4, Guagua, Pampanga, Central Luzon, 2003, Philippines","capacity":null,"hazardTypes":null}},{"type":"Feature","geometry":{"type":"Point","coordinates":[120.6157311,15.1350608]},"properties":{"id":"way/1136413766","osmId":1136413766,"facilityType":"evacuation","name":"Angeles City Main Evacuation Center","address":"Angeles City Main Evacuation Center, Mining Road, Mining, Ninoy Aquino, Pandan, Angeles, Central Luzon, 2009, Philippines","capacity":null,"hazardTypes":null}},{"type":"Feature","geometry":{"type":"Point","coordinates":[120.6935043,14.9967301]},"properties":{"id":"way/772598219","osmId":772598219,"facilityType":"evacuation","name":"Mesalipit Evacuation Center","address":"Mesalipit Evacuation Center, Tail Dike, Blue Diamond, Mesalipit, San Vicente, Bacolor, Pampanga, Central Luzon, Philippines","capacity":"50-100","hazardTypes":null}},{"type":"Feature","geometry":{"type":"Point","coordinates":[120.7893606,14.9924852]},"properties":{"id":"way/1135527835","osmId":1135527835,"facilityType":"evacuation","name":"Barangay San Miguel Evacuation Center 2","address":"Barangay San Miguel Evacuation Center 2, San Simon-Baliuag Road, Santa Cruz, San Simon, Pampanga, Central Luzon, Philippines","capacity":null,"hazardTypes":null}},{"type":"Feature","geometry":{"type":"Point","coordinates":[120.7643496,14.9858508]},"properties":{"id":"way/822483587","osmId":822483587,"facilityType":"evacuation","name":"Evacuation Center","address":"Evacuation Center, Calle Leongson, La Trevi Estate, Santo Niño, San Simon, Pampanga, Central Luzon, 2016, Philippines","capacity":null,"hazardTypes":null}},{"type":"Feature","geometry":{"type":"Point","coordinates":[120.7901501,14.9924399]},"properties":{"id":"way/788608103","osmId":788608103,"facilityType":"evacuation","name":"Barangay San Miguel Evacuation Center 3","address":"Barangay San Miguel Evacuation Center 3, San Simon-Baliuag Road, Santa Cruz, San Luis, Pampanga, Central Luzon, Philippines","capacity":null,"hazardTypes":null}},{"type":"Feature","geometry":{"type":"Point","coordinates":[120.7188826,14.953901]},"properties":{"id":"way/882176198","osmId":882176198,"facilityType":"evacuation","name":"Minalin Evacuation Center","address":"Minalin Evacuation Center, Minalin-Macabebe Road, Tacasan, San Isidro, Minalin, Pampanga, Central Luzon, 2016, Philippines","capacity":">500","hazardTypes":null}},{"type":"Feature","geometry":{"type":"Point","coordinates":[120.7893304,14.9925387]},"properties":{"id":"node/12184071719","osmId":12184071719,"facilityType":"evacuation","name":"Barangay San Miguel Evacuation Center 2","address":"Barangay San Miguel Evacuation Center 2, San Simon-Baliuag Road, Santa Cruz, San Simon, Pampanga, Central Luzon, Philippines","capacity":null,"hazardTypes":null}},{"type":"Feature","geometry":{"type":"Point","coordinates":[120.7904686,14.992402]},"properties":{"id":"node/12184071721","osmId":12184071721,"facilityType":"evacuation","name":"Barangay San Miguel Evacuation Center 4","address":"Barangay San Miguel Evacuation Center 4, San Simon-Baliuag Road, Santa Cruz, San Luis, Pampanga, Central Luzon, Philippines","capacity":null,"hazardTypes":null}},{"type":"Feature","geometry":{"type":"Point","coordinates":[120.7843613,14.9888517]},"properties":{"id":"node/12184071717","osmId":12184071717,"facilityType":"evacuation","name":"Barangay San Miguel Evacuation Center 1","address":"Barangay San Miguel Evacuation Center 1, San Miguel Main Road, San Jose, San Simon, Pampanga, Central Luzon, Philippines","capacity":null,"hazardTypes":null}},{"type":"Feature","geometry":{"type":"Point","coordinates":[120.7901572,14.9924622]},"properties":{"id":"node/12184071720","osmId":12184071720,"facilityType":"evacuation","name":"Barangay San Miguel Evacuation Center 3","address":"Barangay San Miguel Evacuation Center 3, San Simon-Baliuag Road, Santa Cruz, San Luis, Pampanga, Central Luzon, Philippines","capacity":null,"hazardTypes":null}},{"type":"Feature","geometry":{"type":"Point","coordinates":[120.6896102,15.1912331]},"properties":{"id":"way/828028672","osmId":828028672,"facilityType":"evacuation","name":"Baliti Evacuation Center","address":"Baliti Evacuation Center, San Vicente Road, San Vicente, Arayat, Pampanga, Central Luzon, 2011, Philippines","capacity":"50-100","hazardTypes":null}},{"type":"Feature","geometry":{"type":"Point","coordinates":[120.7349102,15.2463525]},"properties":{"id":"way/793718621","osmId":793718621,"facilityType":"evacuation","name":"La Paz Turu Evacuation Center","address":"La Paz Turu Evacuation Center, Santo Niño – Turu Road, Turu, Arayat, Pampanga, Central Luzon, 2011, Philippines","capacity":"50-100","hazardTypes":null}},{"type":"Feature","geometry":{"type":"Point","coordinates":[120.6020052,14.9037597]},"properties":{"id":"way/794776712","osmId":794776712,"facilityType":"evacuation","name":"Regional Evacuation Center","address":"Regional Evacuation Center, River Control Road, Sitio Matikling, Lubao, Pampanga, Central Luzon, 2004, Philippines","capacity":"250-500","hazardTypes":null}},{"type":"Feature","geometry":{"type":"Point","coordinates":[120.6016259,14.9035703]},"properties":{"id":"way/296146261","osmId":296146261,"facilityType":"evacuation","name":"Municipal Evacuation Center Covered Court","address":"Municipal Evacuation Center Covered Court, River Control Road, Sitio Matikling, Lubao, Pampanga, Central Luzon, 2004, Philippines","capacity":"50-100","hazardTypes":null}},{"type":"Feature","geometry":{"type":"Point","coordinates":[120.6013731,14.9033043]},"properties":{"id":"way/296146264","osmId":296146264,"facilityType":"evacuation","name":"Municipal Evacuation Center","address":"Municipal Evacuation Center, River Control Road, Sitio Matikling, Lubao, Pampanga, Central Luzon, 2004, Philippines","capacity":"50-100","hazardTypes":null}},{"type":"Feature","geometry":{"type":"Point","coordinates":[120.5891304,14.9337988]},"properties":{"id":"way/292269335","osmId":292269335,"facilityType":"evacuation","name":"San Nicolas 2nd Evacuation Center","address":"San Nicolas 2nd Evacuation Center, San Nicolas 2nd Road, Purok 3, Purok 2, Santa Barbara, Lubao, Pampanga, Central Luzon, 2004, Philippines","capacity":"<50","hazardTypes":null}},{"type":"Feature","geometry":{"type":"Point","coordinates":[120.6015748,14.8317602]},"properties":{"id":"way/876120735","osmId":876120735,"facilityType":"evacuation","name":"Bancal Pugad Evacuation Center","address":"Bancal Pugad Evacuation Center, Sebitanan Bridge 1, Sebitanan, Lubao, Pampanga, Central Luzon, 2004, Philippines","capacity":">500","hazardTypes":null}},{"type":"Feature","geometry":{"type":"Point","coordinates":[120.5945608,14.8561809]},"properties":{"id":"way/794799358","osmId":794799358,"facilityType":"evacuation","name":"Bancal Sinubli Evacuation Center","address":"Bancal Sinubli Evacuation Center, Sebitanan Bridge 1, Sebitanan, Lubao, Pampanga, Central Luzon, 2005, Philippines","capacity":null,"hazardTypes":null}},{"type":"Feature","geometry":{"type":"Point","coordinates":[120.7654124,15.0665557]},"properties":{"id":"way/1327459830","osmId":1327459830,"facilityType":"evacuation","name":"Pampanga Evacuation Center","address":"Pampanga Evacuation Center, Mexico-San Luis Road, Villa Santo Domingo, Visitas, Santa Maria, Pampanga, Central Luzon, 2022, Philippines","capacity":null,"hazardTypes":null}},{"type":"Feature","geometry":{"type":"Point","coordinates":[120.7644999,15.0674139]},"properties":{"id":"way/807267413","osmId":807267413,"facilityType":"evacuation","name":"Mexico Evacuation Center","address":"Mexico Evacuation Center, Mexico-San Luis Road, Villa Santo Domingo, Visitas, Mexico, Pampanga, Central Luzon, 2022, Philippines","capacity":"100-250","hazardTypes":null}},{"type":"Feature","geometry":{"type":"Point","coordinates":[120.7762652,15.0345785]},"properties":{"id":"way/787120093","osmId":787120093,"facilityType":"evacuation","name":"San Luis Municipal Evacuation Center","address":"San Luis Municipal Evacuation Center, Pampanga River Control Road, Santa Rita, Santo Tomas, San Luis, Pampanga, Central Luzon, Philippines","capacity":"250-500","hazardTypes":null}},{"type":"Feature","geometry":{"type":"Point","coordinates":[120.7630766,15.0845704]},"properties":{"id":"way/847829480","osmId":847829480,"facilityType":"evacuation","name":"Multi-Purpose Building Evacuation Center","address":"Multi-Purpose Building Evacuation Center, Jose Abad Santos Avenue, Villa Luisa Subdivision, Tramo, Santa Ana, Pampanga, Central Luzon, 2022, Philippines","capacity":"50-100","hazardTypes":["flood"]}},{"type":"Feature","geometry":{"type":"Point","coordinates":[120.7185655,15.06475]},"properties":{"id":"way/805401182","osmId":805401182,"facilityType":"evacuation","name":"Municipality of Mexico Evacuation Center","address":"Municipality of Mexico Evacuation Center, F. Maniago Street, Tinajero, Mexico, Pampanga, Central Luzon, 2021, Philippines","capacity":"250-500","hazardTypes":null}},{"type":"Feature","geometry":{"type":"Point","coordinates":[120.5168688,15.0706401]},"properties":{"id":"way/895482005","osmId":895482005,"facilityType":"evacuation","name":"Diaz Evacuation Area","address":"Diaz Evacuation Area, Subic-Clark-Tarlac Expressway, Pangaranan, Pio, Porac, Pampanga, Central Luzon, 2008, Philippines","capacity":"100-250","hazardTypes":null}},{"type":"Feature","geometry":{"type":"Point","coordinates":[120.8126716,15.0926159]},"properties":{"id":"way/202784236","osmId":202784236,"facilityType":"evacuation","name":"Candaba Evacuation Center","address":"Candaba Evacuation Center, Pampanga River Control Road, Mandasig, Candaba, Pampanga, Central Luzon, 2022, Philippines","capacity":"50-100","hazardTypes":null}},{"type":"Feature","geometry":{"type":"Point","coordinates":[120.7987661,15.0957171]},"properties":{"id":"way/788312824","osmId":788312824,"facilityType":"evacuation","name":"Candaba Evacuation Center","address":"Candaba Evacuation Center, Candaba-Santa Ana Road, Pasig, Candaba, Pampanga, Central Luzon, 2022, Philippines","capacity":"<50","hazardTypes":null}},{"type":"Feature","geometry":{"type":"Point","coordinates":[120.7717474,15.153793]},"properties":{"id":"way/221190071","osmId":221190071,"facilityType":"evacuation","name":"Arayat Evacuation Center","address":"Arayat Evacuation Center, Jose Abad Santos Avenue, Purok 2, Plasang Luma, Arayat, Pampanga, Central Luzon, 2012, Philippines","capacity":"100-250","hazardTypes":null}},{"type":"Feature","geometry":{"type":"Point","coordinates":[120.6927319,14.9804922]},"properties":{"id":"way/819277479","osmId":819277479,"facilityType":"evacuation","name":"Minalin Municipal Evacuation Center","address":"Minalin Municipal Evacuation Center, Rosal Street, Purok 5, Santa Rita, Minalin, Pampanga, Central Luzon, Philippines","capacity":">500","hazardTypes":null}},{"type":"Feature","geometry":{"type":"Point","coordinates":[120.9658305,14.599009]},"properties":{"id":"way/458000531","osmId":458000531,"facilityType":"evacuation","name":"Delpan Evacuation Center","address":"Delpan Evacuation Center, Delpan Street, San Nicolas, Third District, Manila, Capital District, Metro Manila, 1010, Philippines","capacity":null,"hazardTypes":null}},{"type":"Feature","geometry":{"type":"Point","coordinates":[121.1083864,14.7196515]},"properties":{"id":"way/813005835","osmId":813005835,"facilityType":"evacuation","name":"evacuation center","address":"evacuation center, Phase 3 Block 3, Lupang Pangako, Empire View Park, 2nd District, Quezon City, Eastern Manila District, Metro Manila, 1119, Philippines","capacity":null,"hazardTypes":null}},{"type":"Feature","geometry":{"type":"Point","coordinates":[121.1097177,14.6751942]},"properties":{"id":"node/12880447252","osmId":12880447252,"facilityType":"evacuation","name":"Banaba Evacuation Center","address":"Banaba Evacuation Center, General A. Luna Street, Banaba, San Mateo, Rizal, Calabarzon, 1631, Philippines","capacity":null,"hazardTypes":null}},{"type":"Feature","geometry":{"type":"Point","coordinates":[121.1174655,14.5552396]},"properties":{"id":"node/3736881073","osmId":3736881073,"facilityType":"evacuation","name":"Possible evacuation center","address":"Possible evacuation center, Joshua Street, Santa Ana, Taytay, Rizal, Calabarzon, 1920, Philippines","capacity":null,"hazardTypes":null}},{"type":"Feature","geometry":{"type":"Point","coordinates":[121.0375109,14.5945267]},"properties":{"id":"node/10909712569","osmId":10909712569,"facilityType":"evacuation","name":"Evacuation Plan","address":"Evacuation Plan, Ortega Street, Addition Hills, 2nd District, Eastern Manila District, Metro Manila, 1500, Philippines","capacity":null,"hazardTypes":null}},{"type":"Feature","geometry":{"type":"Point","coordinates":[120.8786927,14.7952814]},"properties":{"id":"way/123747897","osmId":123747897,"facilityType":"evacuation","name":"Bulakan Evacuation Center","address":"Bulakan Evacuation Center, Camino Real, San Jose, Bagumbayan, Bulakan, Bulacan, Central Luzon, 3017, Philippines","capacity":null,"hazardTypes":null}},{"type":"Feature","geometry":{"type":"Point","coordinates":[121.1216558,14.6956246]},"properties":{"id":"way/585836139","osmId":585836139,"facilityType":"evacuation","name":"Guitnang Bayan 1 Evacuation Center","address":"Guitnang Bayan 1 Evacuation Center, Kambal Road, Zenaida Subdivision, San Mateo, Rizal, Calabarzon, 1850, Philippines","capacity":null,"hazardTypes":null}},{"type":"Feature","geometry":{"type":"Point","coordinates":[121.0122489,14.7278981]},"properties":{"id":"way/1090631615","osmId":1090631615,"facilityType":"evacuation","name":"Whispering Pines Evacuation Center","address":"Whispering Pines Evacuation Center, Royal Palm Street, Llano, Zone 15, Caybiga, District 1, Caloocan, Northern Manila District, Metro Manila, 1420, Philippines","capacity":null,"hazardTypes":null}},{"type":"Feature","geometry":{"type":"Point","coordinates":[121.2327786,14.4842247]},"properties":{"id":"way/860970577","osmId":860970577,"facilityType":"evacuation","name":"Evacuation Center","address":"Evacuation Center, Santos Street, Camalig, Calahan, Cardona, Rizal, Calabarzon, 1904, Philippines","capacity":null,"hazardTypes":null}},{"type":"Feature","geometry":{"type":"Point","coordinates":[120.9313528,15.1339513]},"properties":{"id":"way/781527456","osmId":781527456,"facilityType":"evacuation","name":"Candaba Evacuation Center - Salapungan","address":"Candaba Evacuation Center - Salapungan, Candaba-San Miguel Road, Salapungan, Candaba, Pampanga, Central Luzon, 2013, Philippines","capacity":"50-100","hazardTypes":null}},{"type":"Feature","geometry":{"type":"Point","coordinates":[120.9306135,15.0690903]},"properties":{"id":"way/1382253285","osmId":1382253285,"facilityType":"evacuation","name":"Evacuation_10 (calasag es)","address":"Evacuation_10 (calasag es), Prince Street, Casa Royale Subdivision, Sapang Putol, San Ildefonso, Bulacan, Central Luzon, 3010, Philippines","capacity":null,"hazardTypes":null}},{"type":"Feature","geometry":{"type":"Point","coordinates":[121.0109766,15.0487072]},"properties":{"id":"way/1382253298","osmId":1382253298,"facilityType":"evacuation","name":"Evacuation_13 (gabihan es)","address":"Evacuation_13 (gabihan es), V. Intacto Street, Gabihan, San Ildefonso, Bulacan, Central Luzon, 3010, Philippines","capacity":null,"hazardTypes":null}},{"type":"Feature","geometry":{"type":"Point","coordinates":[120.9583267,14.591004]},"properties":{"id":"way/458016964","osmId":458016964,"facilityType":"evacuation","name":"Amadome","address":"Amadome, Main Road 2, Gawad Kalinga Habitat for Humanity Village, Port Area, Fifth District, Manila, Capital District, Metro Manila, 1018, Philippines","capacity":null,"hazardTypes":null}},{"type":"Feature","geometry":{"type":"Point","coordinates":[120.9688993,14.6936366]},"properties":{"id":"way/596445518","osmId":596445518,"facilityType":"evacuation","name":"ALERT Multi-purpose Building","address":"ALERT Multi-purpose Building, Agustin Street, Malinta, 1st District, Valenzuela, Northern Manila District, Metro Manila, 1441, Philippines","capacity":null,"hazardTypes":null}},{"type":"Feature","geometry":{"type":"Point","coordinates":[121.406518,14.4676254]},"properties":{"id":"way/1109875268","osmId":1109875268,"facilityType":"evacuation","name":"Old Barangay Hall/Temporary Evacuation Center","address":"Old Barangay Hall/Temporary Evacuation Center, Real Velasquez Extension, Barangay Uno, Kayhakat, Santa Maria, Laguna, Calabarzon, 4022, Philippines","capacity":null,"hazardTypes":null}},{"type":"Feature","geometry":{"type":"Point","coordinates":[121.9381172,14.7142013]},"properties":{"id":"node/4290204492","osmId":4290204492,"facilityType":"evacuation","name":"Polillo Municipal Evacuation Center","address":"Polillo Municipal Evacuation Center, Apolinario Mabini Street, Poblacion, Bañadero, Polillo, Quezon, Calabarzon, 4339, Philippines","capacity":null,"hazardTypes":null}},{"type":"Feature","geometry":{"type":"Point","coordinates":[120.2281475,16.0188336]},"properties":{"id":"node/9721659543","osmId":9721659543,"facilityType":"evacuation","name":"Evacuation Center","address":"Evacuation Center, Casiano Jimenez Street, Poblacion, Lingayen, Pangasinan, Ilocos Region, 2401, Philippines","capacity":null,"hazardTypes":null}},{"type":"Feature","geometry":{"type":"Point","coordinates":[120.2381476,15.8892865]},"properties":{"id":"way/1016060226","osmId":1016060226,"facilityType":"evacuation","name":"Aguilar Evacuation Center","address":"Aguilar Evacuation Center, San Pablo Street, Poblacion, Pogomboa, Aguilar, Pangasinan, Ilocos Region, 2415, Philippines","capacity":null,"hazardTypes":null}},{"type":"Feature","geometry":{"type":"Point","coordinates":[120.5637662,15.8619358]},"properties":{"id":"way/972938836","osmId":972938836,"facilityType":"evacuation","name":"San Antonio Evacuation Center","address":"San Antonio Evacuation Center, Carmen-Alcala Road, San Pedro Ili, Santo Tomas, Pangasinan, Ilocos Region, 2441, Philippines","capacity":null,"hazardTypes":null}},{"type":"Feature","geometry":{"type":"Point","coordinates":[120.5253045,15.9194685]},"properties":{"id":"way/1096351846","osmId":1096351846,"facilityType":"evacuation","name":"Villasis Evacuation Center","address":"Villasis Evacuation Center, Villasis-Malasiqui-San Carlos Road, Unzad, Villasis, Pangasinan, Ilocos Region, 2427, Philippines","capacity":null,"hazardTypes":null}},{"type":"Feature","geometry":{"type":"Point","coordinates":[120.3164704,15.8116794]},"properties":{"id":"way/999081612","osmId":999081612,"facilityType":"evacuation","name":"Evacuation Center","address":"Evacuation Center, Mangatarem-Urbiztondo Road, Dorongan Punta, Mangatarem, Pangasinan, Ilocos Region, 2413, Philippines","capacity":null,"hazardTypes":null}},{"type":"Feature","geometry":{"type":"Point","coordinates":[120.4831687,15.7939391]},"properties":{"id":"node/5930773425","osmId":5930773425,"facilityType":"evacuation","name":"Vacante Evacuation Center","address":"Vacante Evacuation Center, Dike, Pogo, Bautista, Pangasinan, Ilocos Region, 2424, Philippines","capacity":null,"hazardTypes":null}},{"type":"Feature","geometry":{"type":"Point","coordinates":[120.5082149,15.7941174]},"properties":{"id":"node/5930923967","osmId":5930923967,"facilityType":"evacuation","name":"Diaz Evacuation Center","address":"Diaz Evacuation Center, Dike Road, Laoac, Bautista, Pangasinan, Ilocos Region, 2424, Philippines","capacity":null,"hazardTypes":null}},{"type":"Feature","geometry":{"type":"Point","coordinates":[120.5488143,15.7783304]},"properties":{"id":"node/3537961584","osmId":3537961584,"facilityType":"evacuation","name":"Poponto Evacuation Center","address":"Poponto Evacuation Center, MacArthur Highway, San Juan, Moncada, Tarlac, Central Luzon, 2308, Philippines","capacity":null,"hazardTypes":null}},{"type":"Feature","geometry":{"type":"Point","coordinates":[120.45308,15.7632312]},"properties":{"id":"node/12832992797","osmId":12832992797,"facilityType":"evacuation","name":"Pugo Emergency Evacuation Building","address":"Pugo Emergency Evacuation Building, Pugo Barangay Road, Pugo, Bayambang, Pangasinan, Ilocos Region, 2423, Philippines","capacity":null,"hazardTypes":null}},{"type":"Feature","geometry":{"type":"Point","coordinates":[121.5452855,15.7579006]},"properties":{"id":"way/1061950011","osmId":1061950011,"facilityType":"evacuation","name":"Baler Evacuation Center","address":"Baler Evacuation Center, Quezon Street, Suklayin, Baler, Aurora, Central Luzon, 3200, Philippines","capacity":null,"hazardTypes":null}},{"type":"Feature","geometry":{"type":"Point","coordinates":[121.5721021,15.7558846]},"properties":{"id":"node/11885474818","osmId":11885474818,"facilityType":"evacuation","name":"Sabang Daycare and Evacuation center","address":"Sabang Daycare and Evacuation center, T. Molina Street, Barangay V, Sabang, Baler, Aurora, Central Luzon, 3200, Philippines","capacity":null,"hazardTypes":null}},{"type":"Feature","geometry":{"type":"Point","coordinates":[119.8022034,16.1123798]},"properties":{"id":"way/684043821","osmId":684043821,"facilityType":"evacuation","name":"Agno Evacuation center","address":"Agno Evacuation center, Bani-Agno Road, Poblacion East, Agno, Pangasinan, Ilocos Region, 2408, Philippines","capacity":null,"hazardTypes":null}},{"type":"Feature","geometry":{"type":"Point","coordinates":[119.8019347,16.1120417]},"properties":{"id":"node/6549223189","osmId":6549223189,"facilityType":"evacuation","name":"Agno MDRRM Evacuation Civic Center","address":"Agno MDRRM Evacuation Civic Center, Bani-Agno Road, Poblacion East, Agno, Pangasinan, Ilocos Region, 2408, Philippines","capacity":null,"hazardTypes":null}},{"type":"Feature","geometry":{"type":"Point","coordinates":[120.6233382,16.4182237]},"properties":{"id":"way/574871548","osmId":574871548,"facilityType":"evacuation","name":"Gibraltar Evacuation Center","address":"Gibraltar Evacuation Center, C. Arellano Street, Purok 5, Gibraltar, District 1, Baguio, Cordillera Administrative Region, 2600, Philippines","capacity":null,"hazardTypes":null}},{"type":"Feature","geometry":{"type":"Point","coordinates":[120.3659397,16.3484548]},"properties":{"id":"way/1356631115","osmId":1356631115,"facilityType":"evacuation","name":"Regional Evacuation Center","address":"Regional Evacuation Center, Guidday Road, Sector 3, Santa Rita East, Agoo, La Union, Ilocos Region, 2504, Philippines","capacity":null,"hazardTypes":null}},{"type":"Feature","geometry":{"type":"Point","coordinates":[120.581226,16.4527642]},"properties":{"id":"node/8124255902","osmId":8124255902,"facilityType":"evacuation","name":"PROPOSED EVACUATION CENTER","address":"PROPOSED EVACUATION CENTER, Strawberry Farm Road, Poblacion, PalmaVille, Puguis, La Trinidad, Benguet, Cordillera Administrative Region, 2601, Philippines","capacity":null,"hazardTypes":null}},{"type":"Feature","geometry":{"type":"Point","coordinates":[120.5705651,16.4556715]},"properties":{"id":"node/6601596193","osmId":6601596193,"facilityType":"evacuation","name":"Benguet Provincial Evacuation Center","address":"Benguet Provincial Evacuation Center, Wangal - Motorpool Road, Housing, Ampasit, Wangal, La Trinidad, Benguet, Cordillera Administrative Region, 2601, Philippines","capacity":null,"hazardTypes":null}},{"type":"Feature","geometry":{"type":"Point","coordinates":[120.7207494,16.3833857]},"properties":{"id":"way/485069717","osmId":485069717,"facilityType":"evacuation","name":"Binga Gym/Evacuation Center","address":"Binga Gym/Evacuation Center, Binga Barangay Road, Baloy, Itogon, Benguet, Cordillera Administrative Region, Philippines","capacity":null,"hazardTypes":null}},{"type":"Feature","geometry":{"type":"Point","coordinates":[120.6942133,16.3830045]},"properties":{"id":"node/6407937559","osmId":6407937559,"facilityType":"evacuation","name":"Fianza Memorial National HS/Evacuation Center/School Based MRF","address":"Fianza Memorial National HS/Evacuation Center/School Based MRF, Baguio City – Twin River – Keweng – Dalupirip National Road, Mambolo, Itogon, Benguet, Cordillera Administrative Region, Philippines","capacity":null,"hazardTypes":null}},{"type":"Feature","geometry":{"type":"Point","coordinates":[120.6674962,16.3886839]},"properties":{"id":"node/6407963861","osmId":6407963861,"facilityType":"evacuation","name":"Keystone Evacuation Center","address":"Keystone Evacuation Center, Keystone - Malasin Road, Goldfield, Itogon, Benguet, Cordillera Administrative Region, 2604, Philippines","capacity":null,"hazardTypes":null}},{"type":"Feature","geometry":{"type":"Point","coordinates":[120.6789321,16.3601541]},"properties":{"id":"node/4896223622","osmId":4896223622,"facilityType":"evacuation","name":"Sacred Heart High School/Evacuation Center","address":"Sacred Heart High School/Evacuation Center, Baguio-Itogon Road, Poblacion, Baguingey, Itogon, Benguet, Cordillera Administrative Region, Philippines","capacity":null,"hazardTypes":null}},{"type":"Feature","geometry":{"type":"Point","coordinates":[120.4755898,16.5023805]},"properties":{"id":"way/647085049","osmId":647085049,"facilityType":"evacuation","name":"Evacuation Center","address":"Evacuation Center, Poblacion, Elpidio Quirino Highway, Lamtang, Sablan, Benguet, Cordillera Administrative Region, 2614, Philippines","capacity":null,"hazardTypes":null}},{"type":"Feature","geometry":{"type":"Point","coordinates":[120.3627873,16.7223557]},"properties":{"id":"relation/18802395","osmId":18802395,"facilityType":"evacuation","name":"Regional Evacuation Center","address":"Regional Evacuation Center, Consolacion Street, Poblacion, Lacong Village, Bacnotan, La Union, Ilocos Region, 2525, Philippines","capacity":null,"hazardTypes":null}},{"type":"Feature","geometry":{"type":"Point","coordinates":[120.6057221,16.5753891]},"properties":{"id":"way/379557937","osmId":379557937,"facilityType":"evacuation","name":"Multipurpose building and Evacuation Center","address":"Multipurpose building and Evacuation Center, Governor Bado Dangwa National Road, Lomon, Kapangan, Benguet, Cordillera Administrative Region, Philippines","capacity":null,"hazardTypes":null}},{"type":"Feature","geometry":{"type":"Point","coordinates":[120.7352113,16.7682554]},"properties":{"id":"way/1001311101","osmId":1001311101,"facilityType":"evacuation","name":"school ground and evacuation area","address":"school ground and evacuation area, Governor Bado Dangwa National Road, Ampusongan, Benguet, Cordillera Administrative Region, Philippines","capacity":null,"hazardTypes":null}},{"type":"Feature","geometry":{"type":"Point","coordinates":[120.6622492,16.7918299]},"properties":{"id":"way/553836565","osmId":553836565,"facilityType":"evacuation","name":"Poblacion Evacuation Center","address":"Poblacion Evacuation Center, Kabunian Trail, Bakun, Benguet, Cordillera Administrative Region, Philippines","capacity":null,"hazardTypes":null}},{"type":"Feature","geometry":{"type":"Point","coordinates":[120.3776525,16.8545084]},"properties":{"id":"way/452021934","osmId":452021934,"facilityType":"evacuation","name":"Evacuation Center","address":"Evacuation Center, Guray Street, Victoria, Luna, La Union, Ilocos Region, 2518, Philippines","capacity":null,"hazardTypes":null}},{"type":"Feature","geometry":{"type":"Point","coordinates":[120.8313692,16.7886078]},"properties":{"id":"way/564380609","osmId":564380609,"facilityType":"evacuation","name":"Socio Cultural and Evacuation Center","address":"Socio Cultural and Evacuation Center, Congressman Andres Acop Cosalan Road, Loo, Benguet, Cordillera Administrative Region, 2607, Philippines","capacity":null,"hazardTypes":null}},{"type":"Feature","geometry":{"type":"Point","coordinates":[120.8298211,16.4912747]},"properties":{"id":"way/541918599","osmId":541918599,"facilityType":"evacuation","name":"LGU Bokod Evacuation Center","address":"LGU Bokod Evacuation Center, Congressman Andres Acop Cosalan Road, Poblacion, Benguet, Cordillera Administrative Region, 2605, Philippines","capacity":null,"hazardTypes":null}},{"type":"Feature","geometry":{"type":"Point","coordinates":[121.7010859,16.563519]},"properties":{"id":"way/1256420300","osmId":1256420300,"facilityType":"evacuation","name":"Evacuation Center","address":"Evacuation Center, Santiago-San Agustin Road, Barangay 1, Dalibubon, Isabela, Cagayan Valley, Philippines","capacity":null,"hazardTypes":null}},{"type":"Feature","geometry":{"type":"Point","coordinates":[122.1235756,16.2781101]},"properties":{"id":"way/630823330","osmId":630823330,"facilityType":"evacuation","name":"EVACUATION CENTER","address":"EVACUATION CENTER, Gomez Street, Barangay 5, Casiguran, Aurora, Central Luzon, Philippines","capacity":null,"hazardTypes":null}},{"type":"Feature","geometry":{"type":"Point","coordinates":[122.1225684,16.2813946]},"properties":{"id":"way/630830571","osmId":630830571,"facilityType":"evacuation","name":"Evacuation Center Calantas","address":"Evacuation Center Calantas, Zamora Street, Barangay 5, Casiguran, Aurora, Central Luzon, Philippines","capacity":null,"hazardTypes":null}},{"type":"Feature","geometry":{"type":"Point","coordinates":[120.4777392,17.3644286]},"properties":{"id":"node/4496331804","osmId":4496331804,"facilityType":"evacuation","name":"Evacuation Center","address":"Evacuation Center, S. Dakota Street, Poblacion Sur, Santa Maria, Ilocos Sur, Ilocos Region, 2705, Philippines","capacity":null,"hazardTypes":null}},{"type":"Feature","geometry":{"type":"Point","coordinates":[121.7023337,17.0887484]},"properties":{"id":"way/208646361","osmId":208646361,"facilityType":"evacuation","name":"Evacuation Center / Burgos Community Center","address":"Evacuation Center / Burgos Community Center, Don Eustaquio Asuncion Road, Burgos, Isabela, Cagayan Valley, Philippines","capacity":null,"hazardTypes":null}},{"type":"Feature","geometry":{"type":"Point","coordinates":[121.6116075,17.211897]},"properties":{"id":"way/777634737","osmId":777634737,"facilityType":"evacuation","name":"Mallig Sports Complex Cun Evacuation Center","address":"Mallig Sports Complex Cun Evacuation Center, Santiago-Tuguegarao Road, Mallig, Isabela, Cagayan Valley, 3323, Philippines","capacity":null,"hazardTypes":null}},{"type":"Feature","geometry":{"type":"Point","coordinates":[120.649874,18.2294242]},"properties":{"id":"way/452602028","osmId":452602028,"facilityType":"evacuation","name":"Vintar Central School/Evacuation Center","address":"Vintar Central School/Evacuation Center, Rizal Street, l, Laoag, Ilocos Norte, Ilocos Region, 2915, Philippines","capacity":null,"hazardTypes":null}},{"type":"Feature","geometry":{"type":"Point","coordinates":[120.649435,18.2293408]},"properties":{"id":"way/452603702","osmId":452603702,"facilityType":"evacuation","name":"La Presidencia Museum/Evacuation Center","address":"La Presidencia Museum/Evacuation Center, Rizal Street, l, Laoag, Ilocos Norte, Ilocos Region, 2916, Philippines","capacity":null,"hazardTypes":null}}]}