{"type":"FeatureCollection","features":[{"type":"Feature","geometry":{"type":"Point","coordinates":[120.9658305,14.599009]},"properties":{"id":"way/458000531","osmId":458000531,"facilityType":"evacuation","name":"Delpan Evacuation Center","address":"Delpan Evacuation Center, Delpan Street, San Nicolas, Third District, Manila, Capital District, Metro Manila, 1010, Philippines","capacity":null,"hazardTypes":null}},{"type":"Feature","geometry":{"type":"Point","coordinates":[121.1083864,14.7196515]},"properties":{"id":"way/813005835","osmId":813005835,"facilityType":"evacuation","name":"evacuation center","address":"evacuation center, Phase 3 Block 3, Lupang Pangako, Empire View Park, 2nd District, Quezon City, Eastern Manila District, Metro Manila, 1119, Philippines","capacity":null,"hazardTypes":null}},{"type":"Feature","geometry":{"type":"Point","coordinates":[121.0375109,14.5945267]},"properties":{"id":"node/10909712569","osmId":10909712569,"facilityType":"evacuation","name":"Evacuation Plan","address":"Evacuation Plan, Ortega Street, Addition Hills, 2nd District, Eastern Manila District, Metro Manila, 1500, Philippines","capacity":null,"hazardTypes":null}},{"type":"Feature","geometry":{"type":"Point","coordinates":[121.0122489,14.7278981]},"properties":{"id":"way/1090631615","osmId":1090631615,"facilityType":"evacuation","name":"Whispering Pines Evacuation Center","address":"Whispering Pines Evacuation Center, Royal Palm Street, Llano, Zone 15, Caybiga, District 1, Caloocan, Northern Manila District, Metro Manila, 1420, Philippines","capacity":null,"hazardTypes":null}},{"type":"Feature","geometry":{"type":"Point","coordinates":[120.9583267,14.591004]},"properties":{"id":"way/458016964","osmId":458016964,"facilityType":"evacuation","name":"Amadome","address":"Amadome, Main Road 2, Gawad Kalinga Habitat for Humanity Village, Port Area, Fifth District, Manila, Capital District, Metro Manila, 1018, Philippines","capacity":null,"hazardTypes":null}},{"type":"Feature","geometry":{"type":"Point","coordinates":[120.9688993,14.6936366]},"properties":{"id":"way/596445518","osmId":596445518,"facilityType":"evacuation","name":"ALERT Multi-purpose Building","address":"ALERT Multi-purpose Building, Agustin Street, Malinta, 1st District, Valenzuela, Northern Manila District, Metro Manila, 1441, Philippines","capacity":null,"hazardTypes":null}}]}