{"type":"FeatureCollection","features":[{"type":"Feature","geometry":{"type":"Point","coordinates":[121.0435644,14.4131674]},"properties":{"id":"way/23378990","osmId":23378990,"facilityType":"hospital","name":"Asian Hospital and Medical Center","address":"Asian Hospital and Medical Center, 2205, Civic Drive, 7C Compound, Alabang, Muntinlupa District 2, Muntinlupa, Southern Manila District, Metro Manila, 1781, Philippines","capacity":null,"hazardTypes":null}},{"type":"Feature","geometry":{"type":"Point","coordinates":[121.0493656,14.3709823]},"properties":{"id":"way/797785059","osmId":797785059,"facilityType":"hospital","name":"Beato-Cauilan Hospital","address":"Beato-Cauilan Hospital, National Road, Tunasan, Muntinlupa District 1, Muntinlupa, Southern Manila District, Metro Manila, 1773, Philippines","capacity":null,"hazardTypes":null}},{"type":"Feature","geometry":{"type":"Point","coordinates":[121.0441706,14.4141447]},"properties":{"id":"way/23378979","osmId":23378979,"facilityType":"hospital","name":"Ospital ng Muntinlupa","address":"Ospital ng Muntinlupa, Centennial Lane, Bunye Compound, Alabang, Muntinlupa District 2, Muntinlupa, Southern Manila District, Metro Manila, 1781, Philippines","capacity":null,"hazardTypes":null}},{"type":"Feature","geometry":{"type":"Point","coordinates":[121.0334721,14.4584326]},"properties":{"id":"way/112176621","osmId":112176621,"facilityType":"hospital","name":"Medical Center Parañaque","address":"Medical Center Parañaque, Dr. A. Santos Avenue, Saint Rita Village, BF Homes, Parañaque District 2, Parañaque, Southern Manila District, Metro Manila, 1718, Philippines","capacity":null,"hazardTypes":null}},{"type":"Feature","geometry":{"type":"Point","coordinates":[121.0280118,14.4405674]},"properties":{"id":"way/392895805","osmId":392895805,"facilityType":"hospital","name":null,"address":"De Luna Cul de Sac, BF Homes, Parañaque District 2, Parañaque, Southern Manila District, Metro Manila, 1700, Philippines","capacity":null,"hazardTypes":null}},{"type":"Feature","geometry":{"type":"Point","coordinates":[121.0451987,14.3949618]},"properties":{"id":"way/158976838","osmId":158976838,"facilityType":"hospital","name":"Medical Center Muntinlupa","address":"Medical Center Muntinlupa, 38, National Road, Bruger Subdivision, Putatan, Muntinlupa District 1, Muntinlupa, Southern Manila District, Metro Manila, 1772, Philippines","capacity":"95","hazardTypes":null}},{"type":"Feature","geometry":{"type":"Point","coordinates":[121.0443189,14.3910351]},"properties":{"id":"node/1294244416","osmId":1294244416,"facilityType":"hospital","name":"Alabang Medical Clinic","address":"Alabang Medical Clinic, Country Drive, Bruger Subdivision, Putatan, Muntinlupa District 1, Muntinlupa, Southern Manila District, Metro Manila, 1770, Philippines","capacity":null,"hazardTypes":null}},{"type":"Feature","geometry":{"type":"Point","coordinates":[120.9738063,14.4716371]},"properties":{"id":"way/83534531","osmId":83534531,"facilityType":"hospital","name":"Las Piñas General Hospital & Satellite Trauma Center","address":"Las Piñas General Hospital & Satellite Trauma Center, P. Diego Cera Avenue, Perpetual Village-ii, Pulanglupa Uno, 1st District, Las Piñas, Southern Manila District, Metro Manila, 1742, Philippines","capacity":null,"hazardTypes":null}},{"type":"Feature","geometry":{"type":"Point","coordinates":[120.9836396,14.4883518]},"properties":{"id":"way/181985244","osmId":181985244,"facilityType":"hospital","name":"Our Lady of Peace Hospital","address":"Our Lady of Peace Hospital, Manila-Cavite Expressway, San Dionisio, Parañaque District 1, Parañaque, Southern Manila District, Metro Manila, 1701, Philippines","capacity":null,"hazardTypes":null}},{"type":"Feature","geometry":{"type":"Point","coordinates":[120.9968491,14.4792857]},"properties":{"id":"way/322756911","osmId":322756911,"facilityType":"hospital","name":"Olivarez General Hospital","address":"Olivarez General Hospital, Aurenina Street, San Dionisio, Parañaque District 1, Parañaque, Southern Manila District, Metro Manila, 1700, Philippines","capacity":null,"hazardTypes":null}},{"type":"Feature","geometry":{"type":"Point","coordinates":[121.0484513,14.5028418]},"properties":{"id":"way/1296098159","osmId":1296098159,"facilityType":"hospital","name":"Healthway Cancer Care Hospital","address":"Healthway Cancer Care Hospital, Electronics Avenue, Western Bicutan, Taguig District 2, Taguig, Southern Manila District, Metro Manila, 1713, Philippines","capacity":null,"hazardTypes":null}},{"type":"Feature","geometry":{"type":"Point","coordinates":[120.9745751,14.4719565]},"properties":{"id":"way/1327201768","osmId":1327201768,"facilityType":"hospital","name":"Las Piñas General Hospital","address":"Las Piñas General Hospital, P. Diego Cera Avenue, Julio's Compound, Pulanglupa Uno, 1st District, Las Piñas, Southern Manila District, Metro Manila, 1742, Philippines","capacity":null,"hazardTypes":null}},{"type":"Feature","geometry":{"type":"Point","coordinates":[120.9805332,14.4686903]},"properties":{"id":"way/890866017","osmId":890866017,"facilityType":"hospital","name":"A. Zarate General Hospital","address":"A. Zarate General Hospital, Naga Road, Julio's Compound, Pulanglupa Uno, 1st District, Las Piñas, Southern Manila District, Metro Manila, 1742, Philippines","capacity":null,"hazardTypes":null}},{"type":"Feature","geometry":{"type":"Point","coordinates":[121.0610475,14.4788028]},"properties":{"id":"way/1284446292","osmId":1284446292,"facilityType":"hospital","name":"Taguig Doctors Hospital","address":"Taguig Doctors Hospital, Manuel L. Quezon Avenue, Bautista Compound, Bagumbayan, Taguig District 1, Taguig, Southern Manila District, Metro Manila, 1717, Philippines","capacity":null,"hazardTypes":null}},{"type":"Feature","geometry":{"type":"Point","coordinates":[121.0578217,14.48889]},"properties":{"id":"node/6380993970","osmId":6380993970,"facilityType":"hospital","name":"Doctor J. Sabili General Hospital","address":"Doctor J. Sabili General Hospital, General Paulino Santos Avenue, Lower Bicutan, Taguig District 1, Taguig, Southern Manila District, Metro Manila, 1713, Philippines","capacity":null,"hazardTypes":null}},{"type":"Feature","geometry":{"type":"Point","coordinates":[120.9930099,14.4886384]},"properties":{"id":"way/804161688","osmId":804161688,"facilityType":"hospital","name":"The Premier Medical Center","address":"The Premier Medical Center, Ninoy Aquino Avenue, San Dionisio, Parañaque District 1, Parañaque, Southern Manila District, Metro Manila, 1708, Philippines","capacity":null,"hazardTypes":null}},{"type":"Feature","geometry":{"type":"Point","coordinates":[121.0639189,14.4987263]},"properties":{"id":"way/986224943","osmId":986224943,"facilityType":"hospital","name":"Bicutan Medican Center","address":"Bicutan Medican Center, Manuel L. Quezon Avenue, Acacia Kaliwa, New Lower Bicutan, Taguig District 1, Taguig, Southern Manila District, Metro Manila, 1633, Philippines","capacity":null,"hazardTypes":null}},{"type":"Feature","geometry":{"type":"Point","coordinates":[120.9911419,14.5004242]},"properties":{"id":"way/775154939","osmId":775154939,"facilityType":"hospital","name":"Ospital ng Parañaque","address":"Ospital ng Parañaque, Quirino Avenue, Espiritu Compound, La Huerta, Parañaque District 1, Parañaque, Southern Manila District, Metro Manila, 1701, Philippines","capacity":null,"hazardTypes":null}},{"type":"Feature","geometry":{"type":"Point","coordinates":[120.9905222,14.4980326]},"properties":{"id":"way/308989457","osmId":308989457,"facilityType":"hospital","name":"Soccoro Clinic","address":"Soccoro Clinic, P. Burgos, San Dionisio, Parañaque District 1, Parañaque, Southern Manila District, Metro Manila, 1701, Philippines","capacity":null,"hazardTypes":null}},{"type":"Feature","geometry":{"type":"Point","coordinates":[121.023788,14.501349]},"properties":{"id":"node/643218009","osmId":643218009,"facilityType":"hospital","name":"Commcare, Inc.","address":"Commcare, Inc., 45, Montclair Street, Merville Park Subdivision, Merville Park, Parañaque District 2, Parañaque, Southern Manila District, Metro Manila, 1709, Philippines","capacity":null,"hazardTypes":null}}]}