{"type":"FeatureCollection","features":[{"type":"Feature","geometry":{"type":"Point","coordinates":[121.0059126,6.0500647]},"properties":{"id":"relation/18364362","osmId":18364362,"facilityType":"hospital","name":"Sulu Sanitarium and General Hospital","address":"Sulu Sanitarium and General Hospital, Buyon Street, Lower San Raymundo, Jolo, Sulu, Zamboanga Peninsula, 7400, Philippines","capacity":null,"hazardTypes":null}},{"type":"Feature","geometry":{"type":"Point","coordinates":[121.0014893,6.0449835]},"properties":{"id":"way/822774882","osmId":822774882,"facilityType":"hospital","name":"Camp Navarro General Hospital","address":"Camp Navarro General Hospital, Scott Road, Satag Village, Jolo, Sulu, Zamboanga Peninsula, 7400, Philippines","capacity":null,"hazardTypes":null}},{"type":"Feature","geometry":{"type":"Point","coordinates":[121.0017408,6.0464996]},"properties":{"id":"relation/18706616","osmId":18706616,"facilityType":"hospital","name":"Sulu Provincial Hospital","address":"Sulu Provincial Hospital, Scott Road, Lower San Raymundo, Jolo, Sulu, Zamboanga Peninsula, 7400, Philippines","capacity":null,"hazardTypes":null}},{"type":"Feature","geometry":{"type":"Point","coordinates":[121.3087264,5.9676371]},"properties":{"id":"way/1339771020","osmId":1339771020,"facilityType":"hospital","name":"Luuk District Hospital","address":"Luuk District Hospital, Tubig-Puti, Luuk, Sulu, Zamboanga Peninsula, Philippines","capacity":null,"hazardTypes":null}},{"type":"Feature","geometry":{"type":"Point","coordinates":[124.9513004,6.3396359]},"properties":{"id":"way/1283647255","osmId":1283647255,"facilityType":"hospital","name":"Roel I. Senador M. D. Memorial Hospital","address":"Roel I. Senador M. D. Memorial Hospital, M. Roxas Street, Purok 3-A, Tupi, South Cotabato, Soccsksargen, 9505, Philippines","capacity":null,"hazardTypes":null}},{"type":"Feature","geometry":{"type":"Point","coordinates":[124.9543748,6.3284472]},"properties":{"id":"node/4800372427","osmId":4800372427,"facilityType":"hospital","name":"Rogelio M. Garcia Memorial Hospital","address":"Rogelio M. Garcia Memorial Hospital, General Santos-Koronadal Highway, Purok 9, Bunao, Tupi, South Cotabato, Soccsksargen, 9505, Philippines","capacity":null,"hazardTypes":null}},{"type":"Feature","geometry":{"type":"Point","coordinates":[124.7344919,6.3649502]},"properties":{"id":"way/705519477","osmId":705519477,"facilityType":"hospital","name":"Soccsksargen General Hospital","address":"Soccsksargen General Hospital, Surallah, Dajay, South Cotabato, Soccsksargen, 9512, Philippines","capacity":null,"hazardTypes":null}},{"type":"Feature","geometry":{"type":"Point","coordinates":[124.7460379,6.3739337]},"properties":{"id":"way/1327150072","osmId":1327150072,"facilityType":"hospital","name":"Landero Clinic and Hospital","address":"Landero Clinic and Hospital, 85, Rizal Street, Sison, Surallah, South Cotabato, Soccsksargen, 9512, Philippines","capacity":null,"hazardTypes":null}},{"type":"Feature","geometry":{"type":"Point","coordinates":[124.7494258,6.3743401]},"properties":{"id":"node/7106084186","osmId":7106084186,"facilityType":"hospital","name":"Javelosa Hospital","address":"Javelosa Hospital, Koronadal-Cotabato Highway, Mahidaiton, Liwanay, South Cotabato, Soccsksargen, 9511, Philippines","capacity":null,"hazardTypes":null}},{"type":"Feature","geometry":{"type":"Point","coordinates":[124.6335556,5.9886382]},"properties":{"id":"way/983876895","osmId":983876895,"facilityType":"hospital","name":"Tiburcio Aquino Memorial Hospital","address":"Tiburcio Aquino Memorial Hospital, Sarangani-Sultan Kudarat Coastal Road, Woodbridge, Suli, Sarangani, Soccsksargen, Philippines","capacity":null,"hazardTypes":null}},{"type":"Feature","geometry":{"type":"Point","coordinates":[124.622697,5.9883071]},"properties":{"id":"way/315833864","osmId":315833864,"facilityType":"hospital","name":"Kiamba District Hospital","address":"Kiamba District Hospital, President Quirino Street, Kiamba, Sarangani, Soccsksargen, Philippines","capacity":null,"hazardTypes":null}},{"type":"Feature","geometry":{"type":"Point","coordinates":[124.4943858,6.0628009]},"properties":{"id":"relation/16147368","osmId":16147368,"facilityType":"hospital","name":"Sarangani Provincial Hospital - Maitum","address":"Sarangani Provincial Hospital - Maitum, Kiayap Road, Malalag, Maitum, Sarangani, Soccsksargen, 9515, Philippines","capacity":null,"hazardTypes":null}},{"type":"Feature","geometry":{"type":"Point","coordinates":[124.4944675,6.0621473]},"properties":{"id":"relation/16147369","osmId":16147369,"facilityType":"hospital","name":"Maitum Municipal Hospital","address":"Maitum Municipal Hospital, Sarangani-Sultan Kudarat Coastal Road, Malalag, Maitum, Sarangani, Soccsksargen, 9515, Philippines","capacity":null,"hazardTypes":null}},{"type":"Feature","geometry":{"type":"Point","coordinates":[124.8101835,6.2468882]},"properties":{"id":"node/7070337750","osmId":7070337750,"facilityType":"hospital","name":"Moorehouse Hospital","address":"Moorehouse Hospital, Surallah-T'Boli Road, Datang, Sinolon, T'Boli, South Cotabato, Soccsksargen, 9513, Philippines","capacity":null,"hazardTypes":null}},{"type":"Feature","geometry":{"type":"Point","coordinates":[124.7188158,6.228561]},"properties":{"id":"way/704905559","osmId":704905559,"facilityType":"hospital","name":null,"address":"Poblacion-Lamdalag Road, Rosas, Lake Sebu, South Cotabato, Soccsksargen, 9506, Philippines","capacity":null,"hazardTypes":null}},{"type":"Feature","geometry":{"type":"Point","coordinates":[124.7189328,6.2287045]},"properties":{"id":"node/6005635590","osmId":6005635590,"facilityType":"hospital","name":"Lake Sebu Community Health Care Complex","address":"Lake Sebu Community Health Care Complex, Purok Rosas, Poblacion-Lamdalag Road, Rosas, Lake Sebu, South Cotabato, Soccsksargen, 9514, Philippines","capacity":null,"hazardTypes":null}},{"type":"Feature","geometry":{"type":"Point","coordinates":[124.8101907,6.2469226]},"properties":{"id":"way/690209995","osmId":690209995,"facilityType":"hospital","name":null,"address":"Surallah-T'Boli Road, Datang, Sinolon, T'Boli, South Cotabato, Soccsksargen, 9513, Philippines","capacity":null,"hazardTypes":null}},{"type":"Feature","geometry":{"type":"Point","coordinates":[124.8098716,6.2476103]},"properties":{"id":"node/6694083985","osmId":6694083985,"facilityType":"hospital","name":"MMC Thyroid Center","address":"MMC Thyroid Center, Surallah-T'Boli Road, Datang, Sinolon, T'Boli, South Cotabato, Soccsksargen, 9513, Philippines","capacity":null,"hazardTypes":null}},{"type":"Feature","geometry":{"type":"Point","coordinates":[124.7473359,6.1027031]},"properties":{"id":"way/724467988","osmId":724467988,"facilityType":"hospital","name":null,"address":"Motosum, T'Boli, South Cotabato, Soccsksargen, Philippines","capacity":null,"hazardTypes":null}},{"type":"Feature","geometry":{"type":"Point","coordinates":[125.1858189,6.1257417]},"properties":{"id":"way/629319590","osmId":629319590,"facilityType":"hospital","name":"General Santos City Hospital","address":"General Santos City Hospital, Eusebio Fernandez Street, Lagao, General Santos, Soccsksargen, 9500, Philippines","capacity":null,"hazardTypes":null}},{"type":"Feature","geometry":{"type":"Point","coordinates":[125.1783572,6.1201941]},"properties":{"id":"way/277071242","osmId":277071242,"facilityType":"hospital","name":"General Santos Doctors Hospital","address":"General Santos Doctors Hospital, Digos-Makar Road, Dadiangas East, General Santos, Soccsksargen, 9500, Philippines","capacity":null,"hazardTypes":null}},{"type":"Feature","geometry":{"type":"Point","coordinates":[125.1799487,6.1182496]},"properties":{"id":"way/267606370","osmId":267606370,"facilityType":"hospital","name":"Saint Elizabeth Hospital","address":"Saint Elizabeth Hospital, Irineo Santiago Boulevard, Subdivisión Cabe, Dadiangas South, General Santos, Soccsksargen, 9500, Philippines","capacity":null,"hazardTypes":null}},{"type":"Feature","geometry":{"type":"Point","coordinates":[125.1898312,6.1183067]},"properties":{"id":"way/267627490","osmId":267627490,"facilityType":"hospital","name":"Socsargen County Hospital","address":"Socsargen County Hospital, Honorio Arriola Street, Fishermen's Village, Bula, General Santos, Soccsksargen, 9500, Philippines","capacity":null,"hazardTypes":null}},{"type":"Feature","geometry":{"type":"Point","coordinates":[125.1671546,6.1144786]},"properties":{"id":"way/315695318","osmId":315695318,"facilityType":"hospital","name":"R. O. Diagan Community Hospital","address":"R. O. Diagan Community Hospital, Tieza Street, Dadiangas North, General Santos, Soccsksargen, 9500, Philippines","capacity":null,"hazardTypes":null}},{"type":"Feature","geometry":{"type":"Point","coordinates":[125.171194,6.1136475]},"properties":{"id":"way/275377777","osmId":275377777,"facilityType":"hospital","name":"Peuriculture Hospital","address":"Peuriculture Hospital, City Hall Drive, Fatima, Dadiangas West, General Santos, Soccsksargen, 9500, Philippines","capacity":null,"hazardTypes":null}},{"type":"Feature","geometry":{"type":"Point","coordinates":[125.1677703,6.113005]},"properties":{"id":"way/274461174","osmId":274461174,"facilityType":"hospital","name":"Auguis Clinic & Hospital","address":"Auguis Clinic & Hospital, M. Quezon Avenue, Santa Cruz, Dadiangas West, General Santos, Soccsksargen, 9500, Philippines","capacity":null,"hazardTypes":null}},{"type":"Feature","geometry":{"type":"Point","coordinates":[125.0945559,6.2468295]},"properties":{"id":"way/302985291","osmId":302985291,"facilityType":"hospital","name":"Howard Hubbard Memorial Hospital","address":"Howard Hubbard Memorial Hospital, Polomolok-Malungon Road, Esposado, Cannery Site, Polomolok, South Cotabato, Soccsksargen, 9504, Philippines","capacity":null,"hazardTypes":null}},{"type":"Feature","geometry":{"type":"Point","coordinates":[125.0677986,6.2175925]},"properties":{"id":"way/317473184","osmId":317473184,"facilityType":"hospital","name":"Heramil Hospital","address":"Heramil Hospital, Cannery Road, Poblacion, Polomolok, South Cotabato, Soccsksargen, 9504, Philippines","capacity":null,"hazardTypes":null}},{"type":"Feature","geometry":{"type":"Point","coordinates":[125.064167,6.2206652]},"properties":{"id":"way/1060915511","osmId":1060915511,"facilityType":"hospital","name":"Bontuyan Medical Clinic & Hospital","address":"Bontuyan Medical Clinic & Hospital, B. Bayan, Sr. Street, Poblacion, Polomolok, South Cotabato, Soccsksargen, 9504, Philippines","capacity":null,"hazardTypes":null}},{"type":"Feature","geometry":{"type":"Point","coordinates":[125.2099984,5.8207584]},"properties":{"id":"way/338466268","osmId":338466268,"facilityType":"hospital","name":"Glan Medicare Community Hospital","address":"Glan Medicare Community Hospital, D. Cania Street, Glan, Sarangani, Soccsksargen, 9517, Philippines","capacity":null,"hazardTypes":null}},{"type":"Feature","geometry":{"type":"Point","coordinates":[125.2731743,6.3761445]},"properties":{"id":"way/471671135","osmId":471671135,"facilityType":"hospital","name":"Malungon Municipal Hospital","address":"Malungon Municipal Hospital, Pioneer Street, Poblacion, Malungon, Sarangani, Soccsksargen, 9503, Philippines","capacity":null,"hazardTypes":null}},{"type":"Feature","geometry":{"type":"Point","coordinates":[125.1598557,6.1281074]},"properties":{"id":"way/369378235","osmId":369378235,"facilityType":"hospital","name":"Mindanao Medical Center","address":"Mindanao Medical Center, Leopoldo D. Dacera Avenue, Saludin, Dadiangas North, General Santos, Soccsksargen, 9500, Philippines","capacity":null,"hazardTypes":null}},{"type":"Feature","geometry":{"type":"Point","coordinates":[125.1231407,6.0651899]},"properties":{"id":"way/1393561527","osmId":1393561527,"facilityType":"hospital","name":"Medical Services Building","address":"Medical Services Building, Infirmary Road, FVR Village, Fatima, General Santos, Soccsksargen, 9500, Philippines","capacity":null,"hazardTypes":null}},{"type":"Feature","geometry":{"type":"Point","coordinates":[125.1232161,6.0649719]},"properties":{"id":"way/315833787","osmId":315833787,"facilityType":"hospital","name":"Infirmary","address":"Infirmary, Infirmary Road, FVR Village, Fatima, General Santos, Soccsksargen, 9500, Philippines","capacity":null,"hazardTypes":null}},{"type":"Feature","geometry":{"type":"Point","coordinates":[125.1476721,6.0825003]},"properties":{"id":"node/10542900110","osmId":10542900110,"facilityType":"hospital","name":"Gensan Medical Center","address":"Gensan Medical Center, Makar-Kiamba Road, Lower Acharon, Calumpang, General Santos, Soccsksargen, 9500, Philippines","capacity":null,"hazardTypes":null}},{"type":"Feature","geometry":{"type":"Point","coordinates":[125.1709837,6.1112099]},"properties":{"id":"node/9679504414","osmId":9679504414,"facilityType":"hospital","name":"WEST RHU","address":"WEST RHU, Sulpicio Muñasque Street, Santa Cruz, Dadiangas West, General Santos, Soccsksargen, 9500, Philippines","capacity":null,"hazardTypes":null}},{"type":"Feature","geometry":{"type":"Point","coordinates":[125.0383022,6.2370003]},"properties":{"id":"way/315838499","osmId":315838499,"facilityType":"hospital","name":null,"address":"General Santos-Koronadal Highway, Sulit, Polomolok, South Cotabato, Soccsksargen, 9504, Philippines","capacity":null,"hazardTypes":null}},{"type":"Feature","geometry":{"type":"Point","coordinates":[124.9975466,5.8629737]},"properties":{"id":"way/677363200","osmId":677363200,"facilityType":"hospital","name":null,"address":"Sarangani-Sultan Kudarat Coastal Road, Maasim, Sarangani, Soccsksargen, Philippines","capacity":null,"hazardTypes":null}},{"type":"Feature","geometry":{"type":"Point","coordinates":[122.1329439,6.9668078]},"properties":{"id":"way/275403325","osmId":275403325,"facilityType":"hospital","name":"Mindanao Sanitarium Hospital","address":"Mindanao Sanitarium Hospital, Pasobolong Highway, Pasobolong, Salaan, Zamboanga City, Zamboanga Peninsula, 7000, Philippines","capacity":null,"hazardTypes":null}},{"type":"Feature","geometry":{"type":"Point","coordinates":[122.0801194,6.9152746]},"properties":{"id":"way/269769306","osmId":269769306,"facilityType":"hospital","name":"Zamboanga Doctors' Hospital","address":"Zamboanga Doctors' Hospital, Veterans Avenue, Zone III, Santa Catalina, Zamboanga City, Zamboanga Peninsula, 7000, Philippines","capacity":null,"hazardTypes":null}},{"type":"Feature","geometry":{"type":"Point","coordinates":[122.0683092,6.9078586]},"properties":{"id":"relation/15324177","osmId":15324177,"facilityType":"hospital","name":"Brent Hospital","address":"Brent Hospital, R.T. Lim Boulevard, Santo Niño, Zamboanga City, Zamboanga Peninsula, 7000, Philippines","capacity":null,"hazardTypes":null}},{"type":"Feature","geometry":{"type":"Point","coordinates":[122.0378153,6.9177928]},"properties":{"id":"way/240219413","osmId":240219413,"facilityType":"hospital","name":"Camp Navarro General Hospital","address":"Camp Navarro General Hospital, San Jose Street, Kalasahan, Calarian, Zamboanga City, Zamboanga Peninsula, 7000, Philippines","capacity":null,"hazardTypes":null}},{"type":"Feature","geometry":{"type":"Point","coordinates":[122.219712,7.1831619]},"properties":{"id":"way/839534099","osmId":839534099,"facilityType":"hospital","name":"Cristino Paragas Memorial Hospital","address":"Cristino Paragas Memorial Hospital, Maria Clara L. Lobregat Highway, Curuan, Zamboanga City, Zamboanga Peninsula, 7000, Philippines","capacity":null,"hazardTypes":null}},{"type":"Feature","geometry":{"type":"Point","coordinates":[122.0688631,6.9234647]},"properties":{"id":"way/276434973","osmId":276434973,"facilityType":"hospital","name":"Edwin Andrews Air Base Hospital","address":"Edwin Andrews Air Base Hospital, Saavedra Street, Camino Nuevo, Santa Maria, Zamboanga City, Zamboanga Peninsula, 7000, Philippines","capacity":null,"hazardTypes":null}},{"type":"Feature","geometry":{"type":"Point","coordinates":[122.0798371,6.9048992]},"properties":{"id":"way/275949164","osmId":275949164,"facilityType":"hospital","name":"Hospital de Zamboanga","address":"Hospital de Zamboanga, Pilar Street, Zone IV, Santa Catalina, Zamboanga City, Zamboanga Peninsula, 7000, Philippines","capacity":null,"hazardTypes":null}},{"type":"Feature","geometry":{"type":"Point","coordinates":[122.0758185,6.9072805]},"properties":{"id":"way/317473449","osmId":317473449,"facilityType":"hospital","name":"Zamboanga City Puericulture Hospital","address":"Zamboanga City Puericulture Hospital, P. Brillantes Street, Zone IV, Santa Catalina, Zamboanga City, Zamboanga Peninsula, 7000, Philippines","capacity":null,"hazardTypes":null}},{"type":"Feature","geometry":{"type":"Point","coordinates":[122.1882458,7.0230444]},"properties":{"id":"way/276757944","osmId":276757944,"facilityType":"hospital","name":"Manicahan Lying-in Hospital","address":"Manicahan Lying-in Hospital, Maria Clara L. Lobregat Highway, Islamia, Manicahan, Cabaluay, Zamboanga City, Zamboanga Peninsula, 7000, Philippines","capacity":null,"hazardTypes":null}},{"type":"Feature","geometry":{"type":"Point","coordinates":[122.0305676,6.4193054]},"properties":{"id":"way/875677352","osmId":875677352,"facilityType":"hospital","name":"Sumisip District Hospital","address":"Sumisip District Hospital, Buli-buli, Sumisip, Basilan, Bangsamoro, Philippines","capacity":null,"hazardTypes":null}},{"type":"Feature","geometry":{"type":"Point","coordinates":[121.9881229,6.7004072]},"properties":{"id":"way/663531516","osmId":663531516,"facilityType":"hospital","name":"Basilan General Hospital","address":"Basilan General Hospital, Basilan Circumferential Road, Purok 7, Poblacion, Binuangan, Isabela, Basilan, Zamboanga Peninsula, 7300, Philippines","capacity":null,"hazardTypes":null}},{"type":"Feature","geometry":{"type":"Point","coordinates":[121.9728404,6.7052308]},"properties":{"id":"way/435994855","osmId":435994855,"facilityType":"hospital","name":"Infante Hospital","address":"Infante Hospital, C. P. Garcia Street, Santa Cruz, Poblacion, Carbon, Isabela, Basilan, Zamboanga Peninsula, 7300, Philippines","capacity":null,"hazardTypes":null}},{"type":"Feature","geometry":{"type":"Point","coordinates":[121.9685194,6.698365]},"properties":{"id":"way/1126599838","osmId":1126599838,"facilityType":"hospital","name":"Basilan Community Hospital","address":"Basilan Community Hospital, Rizal Avenue, Aguada, Poblacion, Tampalan, Isabela, Basilan, Zamboanga Peninsula, 7300, Philippines","capacity":null,"hazardTypes":null}},{"type":"Feature","geometry":{"type":"Point","coordinates":[121.9706374,6.7001381]},"properties":{"id":"way/612256864","osmId":612256864,"facilityType":"hospital","name":"Alano's Hospital","address":"Alano's Hospital, Rizal Avenue, Aguada, Poblacion, Tampalan, Isabela, Basilan, Zamboanga Peninsula, 7300, Philippines","capacity":null,"hazardTypes":null}},{"type":"Feature","geometry":{"type":"Point","coordinates":[122.1354213,6.6532203]},"properties":{"id":"way/663247409","osmId":663247409,"facilityType":"hospital","name":"Lamitan Hospital","address":"Lamitan Hospital, Basilan Circumferential Road, Sengal, Lamitan, Basilan, Bangsamoro, 7302, Philippines","capacity":null,"hazardTypes":null}},{"type":"Feature","geometry":{"type":"Point","coordinates":[122.1417305,6.6600317]},"properties":{"id":"way/1340188279","osmId":1340188279,"facilityType":"hospital","name":"Dr. Jose Maria Torres Memorial Foundation Hospital","address":"Dr. Jose Maria Torres Memorial Foundation Hospital, Doctor Jose Torres Street, Sengal, Lamitan, Basilan, Bangsamoro, 7302, Philippines","capacity":null,"hazardTypes":null}},{"type":"Feature","geometry":{"type":"Point","coordinates":[122.0925445,6.9157383]},"properties":{"id":"relation/18146026","osmId":18146026,"facilityType":"hospital","name":"Premier Medical Center Zamboanga","address":"Premier Medical Center Zamboanga, Don Alfaro Street, Tetuan, Santa Catalina, Zamboanga City, Zamboanga Peninsula, 7000, Philippines","capacity":null,"hazardTypes":null}},{"type":"Feature","geometry":{"type":"Point","coordinates":[122.0675538,6.9092746]},"properties":{"id":"way/238198420","osmId":238198420,"facilityType":"hospital","name":"Zamboanga Arturo Eustaquio Fondation Community Medical Center","address":"Zamboanga Arturo Eustaquio Fondation Community Medical Center, San Jose Road, Baliwasan, Zamboanga City, Zamboanga Peninsula, 7000, Philippines","capacity":null,"hazardTypes":null}},{"type":"Feature","geometry":{"type":"Point","coordinates":[122.076876,6.9150674]},"properties":{"id":"way/272520664","osmId":272520664,"facilityType":"hospital","name":"Ciudad Medical de Zamboanga","address":"Ciudad Medical de Zamboanga, Mayor Vitaliano D. Agan Avenue, Zone Ⅱ, Santa Maria, Zamboanga City, Zamboanga Peninsula, 7000, Philippines","capacity":null,"hazardTypes":null}},{"type":"Feature","geometry":{"type":"Point","coordinates":[122.0919954,6.9399166]},"properties":{"id":"way/381745722","osmId":381745722,"facilityType":"hospital","name":"Zamboanga Peninsula Medical Center","address":"Zamboanga Peninsula Medical Center, Maria Clara L. Lobregat Highway, Putik, Guiwan, Zamboanga City, Zamboanga Peninsula, 7000, Philippines","capacity":null,"hazardTypes":null}},{"type":"Feature","geometry":{"type":"Point","coordinates":[122.0793623,6.923505]},"properties":{"id":"way/274478751","osmId":274478751,"facilityType":"hospital","name":"West Metro Medical Center","address":"West Metro Medical Center, Veterans Avenue Extension, Tetuan, Santa Maria, Zamboanga City, Zamboanga Peninsula, 7000, Philippines","capacity":null,"hazardTypes":null}},{"type":"Feature","geometry":{"type":"Point","coordinates":[124.4301013,6.8516994]},"properties":{"id":"way/1381594445","osmId":1381594445,"facilityType":"hospital","name":"Maguindanao Provincial Hospital","address":"Maguindanao Provincial Hospital, Maganoy Roundball, Limpongo, Maguindanao del Sur, Bangsamoro, 9624, Philippines","capacity":null,"hazardTypes":null}},{"type":"Feature","geometry":{"type":"Point","coordinates":[124.164685,7.0198506]},"properties":{"id":"node/4664839489","osmId":4664839489,"facilityType":"hospital","name":"Datu Blah T. Sinsuat District Hospital","address":"Datu Blah T. Sinsuat District Hospital, Sinsuat Avenue, Nuro, Maguindanao del Norte, Bangsamoro, 9602, Philippines","capacity":null,"hazardTypes":null}},{"type":"Feature","geometry":{"type":"Point","coordinates":[124.0667577,6.6489539]},"properties":{"id":"node/6081454614","osmId":6081454614,"facilityType":"hospital","name":"Khalifa District Hospital","address":"Khalifa District Hospital, Awang-Upi-Lebak Road, Barurao, Sultan Kudarat, Soccsksargen, Philippines","capacity":null,"hazardTypes":null}},{"type":"Feature","geometry":{"type":"Point","coordinates":[124.3222298,6.4626149]},"properties":{"id":"way/795504999","osmId":795504999,"facilityType":"hospital","name":"District Hospital","address":"District Hospital, Kulaman - Kalamansig Road, Tinalon, Sultan Kudarat, Soccsksargen, Philippines","capacity":null,"hazardTypes":null}},{"type":"Feature","geometry":{"type":"Point","coordinates":[124.4154869,6.9257787]},"properties":{"id":"way/335518804","osmId":335518804,"facilityType":"hospital","name":"Ampatuan Rural Health Unit","address":"Ampatuan Rural Health Unit, Cotabato-Koronadal Highway, Datu Saudi Ampatuan, Maguindanao del Sur, Bangsamoro, 9626, Philippines","capacity":null,"hazardTypes":null}},{"type":"Feature","geometry":{"type":"Point","coordinates":[124.2229114,7.180783]},"properties":{"id":"way/471667155","osmId":471667155,"facilityType":"hospital","name":"Tamontaka BeMONC","address":"Tamontaka BeMONC, Cotabato-Koronadal Highway, Cotabato City, Maguindanao del Norte, Bangsamoro, 9600, Philippines","capacity":null,"hazardTypes":null}},{"type":"Feature","geometry":{"type":"Point","coordinates":[124.8390361,6.4928546]},"properties":{"id":"way/53141663","osmId":53141663,"facilityType":"hospital","name":"South Cotabato Provincial Hospital","address":"South Cotabato Provincial Hospital, Prime Minister Apolinario M. Mabini Street, Masagana 1, Zone III, Koronadal, South Cotabato, Soccsksargen, 9506, Philippines","capacity":null,"hazardTypes":null}},{"type":"Feature","geometry":{"type":"Point","coordinates":[124.6084203,6.6438846]},"properties":{"id":"way/981894788","osmId":981894788,"facilityType":"hospital","name":"Sultan Kudarat Provincial Hospital","address":"Sultan Kudarat Provincial Hospital, Tacurong - Isulan National Highway, P.C. Barracks, Kenram, Sultan Kudarat, Soccsksargen, 9805, Philippines","capacity":null,"hazardTypes":null}},{"type":"Feature","geometry":{"type":"Point","coordinates":[124.6669955,6.6785235]},"properties":{"id":"way/784831060","osmId":784831060,"facilityType":"hospital","name":"Saint Louis Hospital","address":"Saint Louis Hospital, Tacurong - Isulan National Highway, Rosas, Don Enrique J.C. Montilla, Tacurong, Sultan Kudarat, Soccsksargen, 9800, Philippines","capacity":null,"hazardTypes":null}},{"type":"Feature","geometry":{"type":"Point","coordinates":[124.5650249,6.6779579]},"properties":{"id":"way/315701346","osmId":315701346,"facilityType":"hospital","name":"Domingo Tamondong Memorial Hospital","address":"Domingo Tamondong Memorial Hospital, Cotabato-Koronadal Highway, New Tarlac, Ala, Sultan Kudarat, Soccsksargen, 9806, Philippines","capacity":null,"hazardTypes":null}},{"type":"Feature","geometry":{"type":"Point","coordinates":[124.5991014,6.6313013]},"properties":{"id":"way/664565120","osmId":664565120,"facilityType":"hospital","name":"Galinato Family Clinic and Hospital","address":"Galinato Family Clinic and Hospital, Valencia Street, Kalawag II, Isulan, Sultan Kudarat, Soccsksargen, 9805, Philippines","capacity":null,"hazardTypes":null}},{"type":"Feature","geometry":{"type":"Point","coordinates":[124.5988651,6.6293429]},"properties":{"id":"way/142750503","osmId":142750503,"facilityType":"hospital","name":"Holy Nazarene Clinic and Hospital","address":"Holy Nazarene Clinic and Hospital, Valdez Street, Tumamin, Isulan, Sultan Kudarat, Soccsksargen, 9805, Philippines","capacity":null,"hazardTypes":null}},{"type":"Feature","geometry":{"type":"Point","coordinates":[124.7977016,6.7231586]},"properties":{"id":"way/156958688","osmId":156958688,"facilityType":"hospital","name":"Buluan District Hospital","address":"Buluan District Hospital, Buluan-Datu Paglas National Highway, Bangladesh, Buluan, Maguindanao del Sur, Bangsamoro, 9616, Philippines","capacity":null,"hazardTypes":null}},{"type":"Feature","geometry":{"type":"Point","coordinates":[124.7388504,6.7010659]},"properties":{"id":"way/1379453397","osmId":1379453397,"facilityType":"hospital","name":"Immaculate Concepcion Hospital","address":"Immaculate Concepcion Hospital, Tacurong-President Quirino National Highway, Poblacion, President Quirino, Sultan Kudarat, Soccsksargen, 9804, Philippines","capacity":null,"hazardTypes":null}},{"type":"Feature","geometry":{"type":"Point","coordinates":[124.7233121,6.7566677]},"properties":{"id":"node/5243668521","osmId":5243668521,"facilityType":"hospital","name":"Romualdez Katiku Community Hospital","address":"Romualdez Katiku Community Hospital, Washington Street, Kiludan, Kakal, Ramcor, Maguindanao del Sur, Bangsamoro, 9632, Philippines","capacity":null,"hazardTypes":null}},{"type":"Feature","geometry":{"type":"Point","coordinates":[124.9719441,7.0580258]},"properties":{"id":"way/979916107","osmId":979916107,"facilityType":"hospital","name":"Cotabato Provincial Hospital","address":"Cotabato Provincial Hospital, Cotabato Provincial Capitol, Puasinda, Kidapawan, North Cotabato, Soccsksargen, 9400, Philippines","capacity":null,"hazardTypes":null}},{"type":"Feature","geometry":{"type":"Point","coordinates":[124.6758556,6.6941187]},"properties":{"id":"way/907605166","osmId":907605166,"facilityType":"hospital","name":"Medical Mission Group Hospital Services Cooperative of Tacurong","address":"Medical Mission Group Hospital Services Cooperative of Tacurong, Roxas Avenue, New Rosario, Poblacion, Tacurong, Sultan Kudarat, Soccsksargen, 9800, Philippines","capacity":null,"hazardTypes":null}},{"type":"Feature","geometry":{"type":"Point","coordinates":[124.6811814,6.6896676]},"properties":{"id":"node/6207141299","osmId":6207141299,"facilityType":"hospital","name":"Lu Clinic and Hospital","address":"Lu Clinic and Hospital, Tacurong-President Quirino National Highway, Salanay, San Pablo, Tacurong, Sultan Kudarat, Soccsksargen, 9800, Philippines","capacity":null,"hazardTypes":null}},{"type":"Feature","geometry":{"type":"Point","coordinates":[124.674635,6.6864224]},"properties":{"id":"node/6167541691","osmId":6167541691,"facilityType":"hospital","name":"Sultan Kudarat Doctor's Hospital","address":"Sultan Kudarat Doctor's Hospital, Tacurong - Isulan National Highway, Rosas, Poblacion, Tacurong, Sultan Kudarat, Soccsksargen, 9800, Philippines","capacity":null,"hazardTypes":null}},{"type":"Feature","geometry":{"type":"Point","coordinates":[124.8937543,6.7935295]},"properties":{"id":"node/9115669646","osmId":9115669646,"facilityType":"hospital","name":"Birhen sa Regla Medical Clinic and Hospital","address":"Birhen sa Regla Medical Clinic and Hospital, Tulunan-Datu Paglas National Highway, Malendeg, Damawato, Madidis, Maguindanao del Sur, Bangsamoro, 9617, Philippines","capacity":null,"hazardTypes":null}},{"type":"Feature","geometry":{"type":"Point","coordinates":[124.5308015,7.189292]},"properties":{"id":"way/462582430","osmId":462582430,"facilityType":"hospital","name":"Dr. Amado B. Diaz Hospital","address":"Dr. Amado B. Diaz Hospital, Roosevelt Avenue, Poblacion 3, Midsayap, North Cotabato, Soccsksargen, 9410, Philippines","capacity":null,"hazardTypes":null}},{"type":"Feature","geometry":{"type":"Point","coordinates":[124.5730711,7.1663779]},"properties":{"id":"way/823940780","osmId":823940780,"facilityType":"hospital","name":"Aleosan District Hospital","address":"Aleosan District Hospital, Davao-Cotabato National Highway, San Mateo, Aleosan, North Cotabato, Soccsksargen, 9415, Philippines","capacity":null,"hazardTypes":null}},{"type":"Feature","geometry":{"type":"Point","coordinates":[124.5368052,7.1886793]},"properties":{"id":"way/1364396008","osmId":1364396008,"facilityType":"hospital","name":"Aniceto T. Pesante, Sr. Memorial Hospital","address":"Aniceto T. Pesante, Sr. Memorial Hospital, Pioneer Street, Poblacion 1, Midsayap, North Cotabato, Soccsksargen, 9410, Philippines","capacity":null,"hazardTypes":null}},{"type":"Feature","geometry":{"type":"Point","coordinates":[124.53364,7.1890931]},"properties":{"id":"way/1363200678","osmId":1363200678,"facilityType":"hospital","name":"Sara Family Clinic and Hospital","address":"Sara Family Clinic and Hospital, Jaycee Avenue, Poblacion 2, Midsayap, North Cotabato, Soccsksargen, 9410, Philippines","capacity":null,"hazardTypes":null}},{"type":"Feature","geometry":{"type":"Point","coordinates":[124.6759278,7.0556858]},"properties":{"id":"way/827994511","osmId":827994511,"facilityType":"hospital","name":"Cruzado Medical Clinic and Hospital","address":"Cruzado Medical Clinic and Hospital, 119, Fidel Flores Street, Poblacion, Pikit, North Cotabato, Soccsksargen, 9409, Philippines","capacity":null,"hazardTypes":null}},{"type":"Feature","geometry":{"type":"Point","coordinates":[124.8301978,7.1223889]},"properties":{"id":"way/501132409","osmId":501132409,"facilityType":"hospital","name":"University of Southern Mindanao Hospital","address":"University of Southern Mindanao Hospital, Bai Matabay Plang Avenue, G. C. Abellera, Aringay, Kabacan, North Cotabato, Soccsksargen, 9407, Philippines","capacity":null,"hazardTypes":null}},{"type":"Feature","geometry":{"type":"Point","coordinates":[124.8386985,7.1046296]},"properties":{"id":"way/1186119730","osmId":1186119730,"facilityType":"hospital","name":"Mindanao Doctors Hospital and Cancer Center","address":"Mindanao Doctors Hospital and Cancer Center, Davao-Cotabato National Highway, Purok 6, Katidtuan, Kabacan, North Cotabato, Soccsksargen, 9407, Philippines","capacity":null,"hazardTypes":null}},{"type":"Feature","geometry":{"type":"Point","coordinates":[124.8279528,7.1066137]},"properties":{"id":"node/6386858589","osmId":6386858589,"facilityType":"hospital","name":"St. Michael Hospital","address":"St. Michael Hospital, Rizal Avenue, G. C. Abellera, Kayaga, Kabacan, North Cotabato, Soccsksargen, 9407, Philippines","capacity":null,"hazardTypes":null}},{"type":"Feature","geometry":{"type":"Point","coordinates":[124.8318474,7.1059488]},"properties":{"id":"node/1416341284","osmId":1416341284,"facilityType":"hospital","name":"Kabacan Polymedic Cooperative Hospital","address":"Kabacan Polymedic Cooperative Hospital, Rizal Avenue, G. C. Abellera, Kayaga, Kabacan, North Cotabato, Soccsksargen, 9407, Philippines","capacity":null,"hazardTypes":null}},{"type":"Feature","geometry":{"type":"Point","coordinates":[124.8465701,7.1025313]},"properties":{"id":"node/5286496521","osmId":5286496521,"facilityType":"hospital","name":"Mindanao Doctors Hospital and Cancer Center Incorporated","address":"Mindanao Doctors Hospital and Cancer Center Incorporated, Davao-Cotabato National Highway, Purok 6, Katidtuan, Kabacan, North Cotabato, Soccsksargen, 9407, Philippines","capacity":null,"hazardTypes":null}},{"type":"Feature","geometry":{"type":"Point","coordinates":[124.8950346,6.8240872]},"properties":{"id":"node/12761701904","osmId":12761701904,"facilityType":"hospital","name":"SMMC Hospital","address":"SMMC Hospital, M'lang-Tulunan National Highway, Purok 4, Sibsib, Tulunan, North Cotabato, Soccsksargen, 9403, Philippines","capacity":null,"hazardTypes":null}},{"type":"Feature","geometry":{"type":"Point","coordinates":[124.779457,6.4230025]},"properties":{"id":"way/317472742","osmId":317472742,"facilityType":"hospital","name":"Tamondong Hospital","address":"Tamondong Hospital, Roxas Street, Banga, South Cotabato, Soccsksargen, 9511, Philippines","capacity":null,"hazardTypes":null}},{"type":"Feature","geometry":{"type":"Point","coordinates":[124.7719219,6.4162846]},"properties":{"id":"way/1382759781","osmId":1382759781,"facilityType":"hospital","name":"Dantom Doctors' Hospital, Incorporated","address":"Dantom Doctors' Hospital, Incorporated, Roxas Street, BLISS Project, Banga, South Cotabato, Soccsksargen, 9511, Philippines","capacity":null,"hazardTypes":null}},{"type":"Feature","geometry":{"type":"Point","coordinates":[124.8787417,6.9481063]},"properties":{"id":"way/875900195","osmId":875900195,"facilityType":"hospital","name":"Mlang District Hospital","address":"Mlang District Hospital, J. P. Rizal Street, Poblacion A, Bialong, M'lang, North Cotabato, Soccsksargen, 9406, Philippines","capacity":null,"hazardTypes":null}},{"type":"Feature","geometry":{"type":"Point","coordinates":[124.8867463,6.9464576]},"properties":{"id":"way/827282958","osmId":827282958,"facilityType":"hospital","name":"Roldan Hospital","address":"Roldan Hospital, M.H. del Pilar Street, Poblacion A, Bialong, M'lang, North Cotabato, Soccsksargen, 9402, Philippines","capacity":null,"hazardTypes":null}},{"type":"Feature","geometry":{"type":"Point","coordinates":[124.6613673,6.5224629]},"properties":{"id":"relation/13182690","osmId":13182690,"facilityType":"hospital","name":"Norala District Hospital","address":"Norala District Hospital, Roxas Street, Green Thumb, Poblacion, Norala, South Cotabato, Soccsksargen, 9508, Philippines","capacity":null,"hazardTypes":null}},{"type":"Feature","geometry":{"type":"Point","coordinates":[124.8676218,6.4785661]},"properties":{"id":"way/315695271","osmId":315695271,"facilityType":"hospital","name":"Allah Valley Medical Specialists Center","address":"Allah Valley Medical Specialists Center, General Santos Drive, Felipe, Zone III, Koronadal, South Cotabato, Soccsksargen, 9506, Philippines","capacity":null,"hazardTypes":null}},{"type":"Feature","geometry":{"type":"Point","coordinates":[124.8370889,6.5053222]},"properties":{"id":"way/55333229","osmId":55333229,"facilityType":"hospital","name":"Dr. Arturo P. Pingoy Medical Center","address":"Dr. Arturo P. Pingoy Medical Center, General Santos Drive, Zone IV, Koronadal, South Cotabato, Soccsksargen, 9506, Philippines","capacity":null,"hazardTypes":null}},{"type":"Feature","geometry":{"type":"Point","coordinates":[124.8452543,6.4917817]},"properties":{"id":"way/315838856","osmId":315838856,"facilityType":"hospital","name":"Socomedics Medical Center","address":"Socomedics Medical Center, Judge Alba Avenue, Mabinuligon, Zone III, Koronadal, South Cotabato, Soccsksargen, 9506, Philippines","capacity":null,"hazardTypes":null}},{"type":"Feature","geometry":{"type":"Point","coordinates":[124.8451727,6.4916742]},"properties":{"id":"way/785519942","osmId":785519942,"facilityType":"hospital","name":null,"address":"Judge Alba Avenue, Mabinuligon, Zone III, Koronadal, South Cotabato, Soccsksargen, 9506, Philippines","capacity":null,"hazardTypes":null}},{"type":"Feature","geometry":{"type":"Point","coordinates":[124.8800655,6.4441545]},"properties":{"id":"way/865294386","osmId":865294386,"facilityType":"hospital","name":null,"address":"General Santos Drive, Santo Niño, Carpenter Hill, Koronadal, South Cotabato, Soccsksargen, 9506, Philippines","capacity":null,"hazardTypes":null}},{"type":"Feature","geometry":{"type":"Point","coordinates":[124.5990433,6.6371545]},"properties":{"id":"way/142750285","osmId":142750285,"facilityType":"hospital","name":"Isulan Doctor's Specialist Center","address":"Isulan Doctor's Specialist Center, Tacurong - Isulan National Highway, Hiso, Isulan, Sultan Kudarat, Soccsksargen, 9805, Philippines","capacity":null,"hazardTypes":null}},{"type":"Feature","geometry":{"type":"Point","coordinates":[124.7843227,6.7804707]},"properties":{"id":"way/843641994","osmId":843641994,"facilityType":"hospital","name":"Paglat Rural Health Unit","address":"Paglat Rural Health Unit, Manila Avenue, Poblacion, Paglat, Maguindanao del Sur, Bangsamoro, 9632, Philippines","capacity":null,"hazardTypes":null}},{"type":"Feature","geometry":{"type":"Point","coordinates":[124.8685192,6.7439587]},"properties":{"id":"node/6100004655","osmId":6100004655,"facilityType":"hospital","name":"Rural Health Unit of Datu Paglas","address":"Rural Health Unit of Datu Paglas, Tulunan-Datu Paglas National Highway, Alip, Datu Paglas, Maguindanao del Sur, Bangsamoro, 9617, Philippines","capacity":null,"hazardTypes":null}},{"type":"Feature","geometry":{"type":"Point","coordinates":[124.6958897,6.4108147]},"properties":{"id":"way/754241396","osmId":754241396,"facilityType":"hospital","name":null,"address":"Isulan-Surallah Road, Lapu-Lapu, Santo Niño, South Cotabato, Soccsksargen, 9512, Philippines","capacity":null,"hazardTypes":null}},{"type":"Feature","geometry":{"type":"Point","coordinates":[124.776772,6.4261676]},"properties":{"id":"way/315700209","osmId":315700209,"facilityType":"hospital","name":"D&D Clinic","address":"D&D Clinic, Roxas Street, Banga, South Cotabato, Soccsksargen, 9511, Philippines","capacity":null,"hazardTypes":null}},{"type":"Feature","geometry":{"type":"Point","coordinates":[125.4665425,7.1777989]},"properties":{"id":"way/315838603","osmId":315838603,"facilityType":"hospital","name":"Isaac T. Robillo Memorial Hospital","address":"Isaac T. Robillo Memorial Hospital, Davao-Bukidnon Road, Purok 22, Calinan District, Davao City, Davao Region, 8018, Philippines","capacity":null,"hazardTypes":null}},{"type":"Feature","geometry":{"type":"Point","coordinates":[125.4894497,7.0115068]},"properties":{"id":"way/34831718","osmId":34831718,"facilityType":"hospital","name":"Davao Mediquest Hospital","address":"Davao Mediquest Hospital, MacArthur Highway, Proper, Lizada, Toril District, Davao City, Davao Region, 8025, Philippines","capacity":null,"hazardTypes":null}},{"type":"Feature","geometry":{"type":"Point","coordinates":[125.3612653,6.7438105]},"properties":{"id":"way/167031597","osmId":167031597,"facilityType":"hospital","name":"Davao del Sur National Hospital","address":"Davao del Sur National Hospital, Malvar Street, Christian Village, Zone 3, Digos, Davao del Sur, Davao Region, 8002, Philippines","capacity":null,"hazardTypes":null}},{"type":"Feature","geometry":{"type":"Point","coordinates":[125.3522608,6.7572094]},"properties":{"id":"way/167031514","osmId":167031514,"facilityType":"hospital","name":"Dominican Hospital","address":"Dominican Hospital, Quirino Street, Conte, Zone 1, Digos, Davao del Sur, Davao Region, 8002, Philippines","capacity":null,"hazardTypes":null}},{"type":"Feature","geometry":{"type":"Point","coordinates":[125.3550694,6.7644229]},"properties":{"id":"way/167031161","osmId":167031161,"facilityType":"hospital","name":"Digos Doctors Hospital","address":"Digos Doctors Hospital, MacArthur Highway, Flying A, Zone 2, Kiagot, Digos, Davao del Sur, Davao Region, 8002, Philippines","capacity":null,"hazardTypes":null}},{"type":"Feature","geometry":{"type":"Point","coordinates":[125.3543172,6.7569995]},"properties":{"id":"way/167031031","osmId":167031031,"facilityType":"hospital","name":"Gonzales-Maranan Memorial Hospital","address":"Gonzales-Maranan Memorial Hospital, Quezon Avenue, Conte, Zone 1, Digos, Davao del Sur, Davao Region, 8002, Philippines","capacity":null,"hazardTypes":null}},{"type":"Feature","geometry":{"type":"Point","coordinates":[125.3554528,6.7427]},"properties":{"id":"way/315837690","osmId":315837690,"facilityType":"hospital","name":"Sunga Hospital","address":"Sunga Hospital, Jose Abad Santos Street, Cattleya, Zone 3, Digos, Davao del Sur, Davao Region, 8002, Philippines","capacity":null,"hazardTypes":null}},{"type":"Feature","geometry":{"type":"Point","coordinates":[125.3555133,6.7430568]},"properties":{"id":"way/315837689","osmId":315837689,"facilityType":"hospital","name":"Paulino Hospital","address":"Paulino Hospital, Jose Abad Santos Street, Cattleya, Zone 3, Digos, Davao del Sur, Davao Region, 8002, Philippines","capacity":null,"hazardTypes":null}},{"type":"Feature","geometry":{"type":"Point","coordinates":[125.3564531,6.7598659]},"properties":{"id":"way/167031471","osmId":167031471,"facilityType":"hospital","name":"Caños Medical Clinic & Hospital","address":"Caños Medical Clinic & Hospital, Rizal Avenue, Loyola, Zone 1, Digos, Davao del Sur, Davao Region, 8002, Philippines","capacity":null,"hazardTypes":null}},{"type":"Feature","geometry":{"type":"Point","coordinates":[125.0913762,7.009889]},"properties":{"id":"way/263351636","osmId":263351636,"facilityType":"hospital","name":"Midway Hospital","address":"Midway Hospital, Osmeña Drive, Encarnacion, Poblacion, Nuangan, Kidapawan, North Cotabato, Soccsksargen, 9400, Philippines","capacity":null,"hazardTypes":null}},{"type":"Feature","geometry":{"type":"Point","coordinates":[125.0888156,7.0077646]},"properties":{"id":"way/742448998","osmId":742448998,"facilityType":"hospital","name":"Kidapawan City Hospital","address":"Kidapawan City Hospital, M. L. Quezon Boulevard, Pomelo, Poblacion, Sudapin, Kidapawan, North Cotabato, Soccsksargen, 9400, Philippines","capacity":null,"hazardTypes":null}},{"type":"Feature","geometry":{"type":"Point","coordinates":[125.0864497,7.0243241]},"properties":{"id":"way/315836885","osmId":315836885,"facilityType":"hospital","name":"Manuel Medical Hospital","address":"Manuel Medical Hospital, Davao-Cotabato National Highway, Tomato, Lanao, Kidapawan, North Cotabato, Soccsksargen, 9400, Philippines","capacity":null,"hazardTypes":null}},{"type":"Feature","geometry":{"type":"Point","coordinates":[125.0875547,7.0040195]},"properties":{"id":"node/1226394027","osmId":1226394027,"facilityType":"hospital","name":"United Doctors Hospital of Kidapawan","address":"United Doctors Hospital of Kidapawan, M. L. Quezon Boulevard, Ubas, Poblacion, Kidapawan, North Cotabato, Soccsksargen, 9400, Philippines","capacity":null,"hazardTypes":null}},{"type":"Feature","geometry":{"type":"Point","coordinates":[125.089398,7.0089425]},"properties":{"id":"node/1416202715","osmId":1416202715,"facilityType":"hospital","name":"Kidapawan Doctors Hospital","address":"Kidapawan Doctors Hospital, M. L. Quezon Boulevard, Pomelo, Poblacion, Sudapin, Kidapawan, North Cotabato, Soccsksargen, 9400, Philippines","capacity":null,"hazardTypes":null}},{"type":"Feature","geometry":{"type":"Point","coordinates":[125.4172056,6.8393995]},"properties":{"id":"way/977771601","osmId":977771601,"facilityType":"hospital","name":"Marpe Hospital","address":"Marpe Hospital, Rizal Avenue, Poblacion, Zone III, Santa Cruz, Davao del Sur, Davao Region, 8001, Philippines","capacity":null,"hazardTypes":null}},{"type":"Feature","geometry":{"type":"Point","coordinates":[125.4085535,6.8392264]},"properties":{"id":"node/3198578705","osmId":3198578705,"facilityType":"hospital","name":"Med Core Hospital","address":"Med Core Hospital, Davao-Cotabato Highway, Kandingan, Zone II, Santa Cruz, Davao del Sur, Davao Region, 8001, Philippines","capacity":null,"hazardTypes":null}},{"type":"Feature","geometry":{"type":"Point","coordinates":[125.210154,6.7875819]},"properties":{"id":"way/315836701","osmId":315836701,"facilityType":"hospital","name":"Viacrucis Medical Hospital","address":"Viacrucis Medical Hospital, R. Delos Cientos Street, Poblacion Dos, Tubod, Bansalan, Davao del Sur, Davao Region, 8005, Philippines","capacity":null,"hazardTypes":null}},{"type":"Feature","geometry":{"type":"Point","coordinates":[125.2101781,6.786451]},"properties":{"id":"way/315836700","osmId":315836700,"facilityType":"hospital","name":"Mabama Doctors Hospital","address":"Mabama Doctors Hospital, Bonifacio Road, Poblacion Dos, Tubod, Bansalan, Davao del Sur, Davao Region, 8005, Philippines","capacity":null,"hazardTypes":null}},{"type":"Feature","geometry":{"type":"Point","coordinates":[125.216501,6.7805008]},"properties":{"id":"way/315698502","osmId":315698502,"facilityType":"hospital","name":"Centeno Medical Specialist Hospital","address":"Centeno Medical Specialist Hospital, R. Delos Cientos Street, Banahaw, Mabuhay, Bansalan, Davao del Sur, Davao Region, 8005, Philippines","capacity":null,"hazardTypes":null}},{"type":"Feature","geometry":{"type":"Point","coordinates":[125.3464963,6.6480365]},"properties":{"id":"way/652077558","osmId":652077558,"facilityType":"hospital","name":"South Davao Medical Specialist Hospital","address":"South Davao Medical Specialist Hospital, Purok 4, Northern Paligue, Padada, Davao del Sur, Davao Region, 8007, Philippines","capacity":null,"hazardTypes":null}},{"type":"Feature","geometry":{"type":"Point","coordinates":[125.3436095,6.6405316]},"properties":{"id":"way/317473524","osmId":317473524,"facilityType":"hospital","name":"Yee Hospital","address":"Yee Hospital, Magsaysay Street, Purok 5, Harada Butai, Padada, Davao del Sur, Davao Region, 8007, Philippines","capacity":null,"hazardTypes":null}},{"type":"Feature","geometry":{"type":"Point","coordinates":[125.3458405,6.6399529]},"properties":{"id":"way/574746682","osmId":574746682,"facilityType":"hospital","name":"Padada General Hospital","address":"Padada General Hospital, Bonifacio Street, Almendras, Padada, Davao del Sur, Davao Region, 8007, Philippines","capacity":null,"hazardTypes":null}},{"type":"Feature","geometry":{"type":"Point","coordinates":[125.345766,6.6412816]},"properties":{"id":"way/317473098","osmId":317473098,"facilityType":"hospital","name":"Asilo Hospital","address":"Asilo Hospital, Bonifacio Street, Almendras, Padada, Davao del Sur, Davao Region, 8007, Philippines","capacity":null,"hazardTypes":null}},{"type":"Feature","geometry":{"type":"Point","coordinates":[125.4032981,6.5873663]},"properties":{"id":"way/950142109","osmId":950142109,"facilityType":"hospital","name":"Golingay General Hospital","address":"Golingay General Hospital, Davao-Sarangani Coastal Road, Poblacion, Baybay, Malalag, Davao del Sur, Davao Region, 8010, Philippines","capacity":null,"hazardTypes":null}},{"type":"Feature","geometry":{"type":"Point","coordinates":[125.4032489,6.5889462]},"properties":{"id":"way/1119165167","osmId":1119165167,"facilityType":"hospital","name":"Santo Rosario Hospital","address":"Santo Rosario Hospital, Davao-Sarangani Coastal Road, Poblacion, Baybay, Malalag, Davao del Sur, Davao Region, 8010, Philippines","capacity":null,"hazardTypes":null}},{"type":"Feature","geometry":{"type":"Point","coordinates":[125.2818368,6.754957]},"properties":{"id":"way/961453427","osmId":961453427,"facilityType":"hospital","name":"St. Benedict Hospital of Davao del Sur","address":"St. Benedict Hospital of Davao del Sur, Davao-Cotabato National Highway, Purok 5, Sinaragan, Matanao, Davao del Sur, Davao Region, 8003, Philippines","capacity":null,"hazardTypes":null}},{"type":"Feature","geometry":{"type":"Point","coordinates":[125.2406868,6.7534638]},"properties":{"id":"way/157340016","osmId":157340016,"facilityType":"hospital","name":"Sinawilan Clinic and Hospital","address":"Sinawilan Clinic and Hospital, Davao-Cotabato National Highway, Mahogany, Sinawilan, Matanao, Davao del Sur, Davao Region, 8003, Philippines","capacity":null,"hazardTypes":null}},{"type":"Feature","geometry":{"type":"Point","coordinates":[125.2408005,6.6174657]},"properties":{"id":"way/1390278165","osmId":1390278165,"facilityType":"hospital","name":"Gregorio Matas District Hospital","address":"Gregorio Matas District Hospital, Garcia Street, Poblacion, Kiblawan, Davao del Sur, Davao Region, 8008, Philippines","capacity":null,"hazardTypes":null}},{"type":"Feature","geometry":{"type":"Point","coordinates":[125.0953519,6.9542221]},"properties":{"id":"way/785720592","osmId":785720592,"facilityType":"hospital","name":"Makilala Midway Hospital","address":"Makilala Midway Hospital, Davao-Cotabato National Highway, Purok 5, Poblacion, Makilala, North Cotabato, Soccsksargen, 9401, Philippines","capacity":null,"hazardTypes":null}},{"type":"Feature","geometry":{"type":"Point","coordinates":[125.0916878,6.9570144]},"properties":{"id":"node/1226394033","osmId":1226394033,"facilityType":"hospital","name":"Makilala Medical Specialist Hospital","address":"Makilala Medical Specialist Hospital, Davao-Cotabato National Highway, Purok 5, Poblacion, Makilala, North Cotabato, Soccsksargen, 9401, Philippines","capacity":null,"hazardTypes":null}},{"type":"Feature","geometry":{"type":"Point","coordinates":[125.4498069,7.1885124]},"properties":{"id":"way/1066377977","osmId":1066377977,"facilityType":"hospital","name":"Dr. Lorenzo B. Principe Clinic","address":"Dr. Lorenzo B. Principe Clinic, R. Magsaysay Street, Purok 9, Calinan District, Davao City, Davao Region, 8018, Philippines","capacity":null,"hazardTypes":null}},{"type":"Feature","geometry":{"type":"Point","coordinates":[125.4553396,7.1922225]},"properties":{"id":"node/12229896193","osmId":12229896193,"facilityType":"hospital","name":"Clinica Isaguirre","address":"Clinica Isaguirre, Calinan-Dacudao Road, Purok 18, Calinan District, Davao City, Davao Region, 8018, Philippines","capacity":null,"hazardTypes":null}},{"type":"Feature","geometry":{"type":"Point","coordinates":[125.3444554,6.7624959]},"properties":{"id":"way/167031056","osmId":167031056,"facilityType":"hospital","name":"Medical Center of Digos Cooperative","address":"Medical Center of Digos Cooperative, Quezon Avenue, Conte, Zone 1, Digos, Davao del Sur, Davao Region, 8002, Philippines","capacity":null,"hazardTypes":null}},{"type":"Feature","geometry":{"type":"Point","coordinates":[125.0935654,7.0218386]},"properties":{"id":"way/315834243","osmId":315834243,"facilityType":"hospital","name":"Kidapawan Medical Specialist Center","address":"Kidapawan Medical Specialist Center, Datu Joseph Sibug Avenue, Old PC Barracks, Sudapin, Kidapawan, North Cotabato, Soccsksargen, 9400, Philippines","capacity":null,"hazardTypes":null}},{"type":"Feature","geometry":{"type":"Point","coordinates":[125.08964,7.0212176]},"properties":{"id":"way/315836847","osmId":315836847,"facilityType":"hospital","name":"Madonna Medical Center","address":"Madonna Medical Center, M. L. Quezon Boulevard, Suerte, Poblacion, Sudapin, Kidapawan, North Cotabato, Soccsksargen, 9400, Philippines","capacity":null,"hazardTypes":null}},{"type":"Feature","geometry":{"type":"Point","coordinates":[125.34904,6.6683009]},"properties":{"id":"node/12383762003","osmId":12383762003,"facilityType":"hospital","name":null,"address":"Davao-GenSan Highway, Purok 1, Kiblagon, Hagonoy, Davao del Sur, Davao Region, 8007, Philippines","capacity":null,"hazardTypes":null}},{"type":"Feature","geometry":{"type":"Point","coordinates":[124.9986028,6.4755443]},"properties":{"id":"way/689775491","osmId":689775491,"facilityType":"hospital","name":null,"address":"Malungon-Tampakan Road, Snip, Tablu, Tampakan, South Cotabato, Soccsksargen, 9507, Philippines","capacity":null,"hazardTypes":null}},{"type":"Feature","geometry":{"type":"Point","coordinates":[125.1724354,6.7727461]},"properties":{"id":"node/12483827102","osmId":12483827102,"facilityType":"hospital","name":"Magsaysay Medical Healthcare Inc.","address":"Magsaysay Medical Healthcare Inc., Bansalan-Magsaysay Road, Kapehan, Barayong, Magsaysay, Davao del Sur, Davao Region, 8004, Philippines","capacity":null,"hazardTypes":null}},{"type":"Feature","geometry":{"type":"Point","coordinates":[125.6043962,7.0702759]},"properties":{"id":"way/115065012","osmId":115065012,"facilityType":"hospital","name":"Davao Doctors Hospital","address":"Davao Doctors Hospital, 118, E. Quirino Avenue, Purok 5, 6-A Saint Jude, Poblacion District, Davao City, Davao Region, 8000, Philippines","capacity":null,"hazardTypes":null}},{"type":"Feature","geometry":{"type":"Point","coordinates":[125.6139083,7.075667]},"properties":{"id":"way/29019438","osmId":29019438,"facilityType":"hospital","name":"Davao Mental Hospital","address":"Davao Mental Hospital, J. P. Laurel Avenue, Barangay 30-C, Poblacion District, Davao City, Davao Region, 8000, Philippines","capacity":null,"hazardTypes":null}},{"type":"Feature","geometry":{"type":"Point","coordinates":[125.61498,7.0789729]},"properties":{"id":"way/28993842","osmId":28993842,"facilityType":"hospital","name":"San Pedro Hospital","address":"San Pedro Hospital, De Guzman Street, Barangay 14-B, Poblacion District, Davao City, Davao Region, 8000, Philippines","capacity":null,"hazardTypes":null}},{"type":"Feature","geometry":{"type":"Point","coordinates":[125.6378991,7.0947658]},"properties":{"id":"way/29089321","osmId":29089321,"facilityType":"hospital","name":"Gig Oca Robles Seamen Hospital","address":"Gig Oca Robles Seamen Hospital, Tangigue Street, North San Juan, Centro, Agdao District, Davao City, Davao Region, 8000, Philippines","capacity":null,"hazardTypes":null}},{"type":"Feature","geometry":{"type":"Point","coordinates":[125.5552829,7.0598923]},"properties":{"id":"way/164776850","osmId":164776850,"facilityType":"hospital","name":"Adventist Hospital","address":"Adventist Hospital, MacArthur Highway, Bangkal, Talomo Proper, Talomo District, Davao City, Davao Region, 8023, Philippines","capacity":null,"hazardTypes":null}},{"type":"Feature","geometry":{"type":"Point","coordinates":[125.5972276,7.0744597]},"properties":{"id":"way/28979341","osmId":28979341,"facilityType":"hospital","name":"Brokenshire Hospital","address":"Brokenshire Hospital, Brokenshire Heights, Barangay 8-A, Poblacion District, Davao City, Davao Region, 8000, Philippines","capacity":null,"hazardTypes":null}},{"type":"Feature","geometry":{"type":"Point","coordinates":[125.6332817,7.0970676]},"properties":{"id":"way/916376216","osmId":916376216,"facilityType":"hospital","name":"Lanang Premiere Doctors Hospital","address":"Lanang Premiere Doctors Hospital, D. Zuño Street, Davao Park District, San Antonio, Agdao District, Davao City, Davao Region, 8000, Philippines","capacity":null,"hazardTypes":null}},{"type":"Feature","geometry":{"type":"Point","coordinates":[125.6065197,7.0852454]},"properties":{"id":"way/114689317","osmId":114689317,"facilityType":"hospital","name":"Davao Medical School Foundation Hospital","address":"Davao Medical School Foundation Hospital, Doctor A. Gahol Avenue, Fatima, 19-B Garcia Heights, Poblacion District, Davao City, Davao Region, 8000, Philippines","capacity":null,"hazardTypes":null}},{"type":"Feature","geometry":{"type":"Point","coordinates":[125.5905354,7.0628258]},"properties":{"id":"way/674382714","osmId":674382714,"facilityType":"hospital","name":"United Davao Specialists Hospital and Medical Center","address":"United Davao Specialists Hospital and Medical Center, MacArthur Highway, New Matina, Ma-a, Talomo District, Davao City, Davao Region, 8000, Philippines","capacity":null,"hazardTypes":null}},{"type":"Feature","geometry":{"type":"Point","coordinates":[125.632046,7.0869882]},"properties":{"id":"way/37121709","osmId":37121709,"facilityType":"hospital","name":"Alterado General Hospital","address":"Alterado General Hospital, Villanueva Street, San Miguel, Vicente Duterte, Agdao District, Davao City, Davao Region, 8000, Philippines","capacity":null,"hazardTypes":null}},{"type":"Feature","geometry":{"type":"Point","coordinates":[125.502919,7.0095101]},"properties":{"id":"way/1068744746","osmId":1068744746,"facilityType":"hospital","name":"Ernesto Guadalupe Community Hospital","address":"Ernesto Guadalupe Community Hospital, San Nicolas Street, San Nicolas, Daliao, Toril District, Davao City, Davao Region, 8025, Philippines","capacity":null,"hazardTypes":null}},{"type":"Feature","geometry":{"type":"Point","coordinates":[125.5048672,7.0894506]},"properties":{"id":"way/304045119","osmId":304045119,"facilityType":"hospital","name":"Holy Spirit Hospital","address":"Holy Spirit Hospital, Sampaguita Street, Purok 14, Santo Niño, Tugbok District, Davao City, Davao Region, 8000, Philippines","capacity":null,"hazardTypes":null}},{"type":"Feature","geometry":{"type":"Point","coordinates":[125.6272243,7.0993399]},"properties":{"id":"way/275365519","osmId":275365519,"facilityType":"hospital","name":"Tebow Cure Hospital","address":"Tebow Cure Hospital, J. P. Laurel Avenue, Lanang, Agdao District, Buhangin District, Davao City, Davao Region, 8000, Philippines","capacity":null,"hazardTypes":null}},{"type":"Feature","geometry":{"type":"Point","coordinates":[125.61974,7.118937]},"properties":{"id":"way/140128371","osmId":140128371,"facilityType":"hospital","name":"Dela Cerna Hospital","address":"Dela Cerna Hospital, Buhangin-Cabantian Road, Lower Kawayan, Buhangin, Buhangin District, Davao City, Davao Region, 8000, Philippines","capacity":null,"hazardTypes":null}},{"type":"Feature","geometry":{"type":"Point","coordinates":[125.6252832,7.0764549]},"properties":{"id":"way/139692130","osmId":139692130,"facilityType":"hospital","name":"Mindanao Medical Mission Hospital Emergency Bay","address":"Mindanao Medical Mission Hospital Emergency Bay, Leon Garcia Street, 27-C Santa Ana, Poblacion District, Davao City, Davao Region, 8000, Philippines","capacity":null,"hazardTypes":null}},{"type":"Feature","geometry":{"type":"Point","coordinates":[125.6068025,7.0681942]},"properties":{"id":"way/139683077","osmId":139683077,"facilityType":"hospital","name":"Fabie General Hospital","address":"Fabie General Hospital, P. Pelayo Street, Barangay 3-A, Poblacion District, Davao City, Davao Region, 8000, Philippines","capacity":null,"hazardTypes":null}},{"type":"Feature","geometry":{"type":"Point","coordinates":[125.5322998,7.0449475]},"properties":{"id":"way/139543092","osmId":139543092,"facilityType":"hospital","name":"St. Felix Hospital","address":"St. Felix Hospital, Gem Street, Tierra Solariega, Catotal Subdivision, Bago Aplaya, Talomo District, Davao City, Davao Region, 8000, Philippines","capacity":null,"hazardTypes":null}},{"type":"Feature","geometry":{"type":"Point","coordinates":[126.011445,6.895917]},"properties":{"id":"node/5217099621","osmId":5217099621,"facilityType":"hospital","name":"Razo Medical Hospital","address":"Razo Medical Hospital, Comarra Street, Aroma Beach, Ilangay, Lupon, Davao Oriental, Davao Region, 8207, Philippines","capacity":null,"hazardTypes":null}},{"type":"Feature","geometry":{"type":"Point","coordinates":[125.7091023,7.0746628]},"properties":{"id":"way/737757956","osmId":737757956,"facilityType":"hospital","name":"Davao del Norte Hospital","address":"Davao del Norte Hospital, Datu Taganiug Street, Caga, Peñaplata, Samal District, Samal, Davao del Norte, Davao Region, 8119, Philippines","capacity":null,"hazardTypes":null}},{"type":"Feature","geometry":{"type":"Point","coordinates":[125.6623174,7.1533665]},"properties":{"id":"way/116677998","osmId":116677998,"facilityType":"hospital","name":"Naval Forces Hospital","address":"Naval Forces Hospital, Naval Station Felix Apolinario, Bunawan District, Davao City, Davao Region, 8000, Philippines","capacity":null,"hazardTypes":null}},{"type":"Feature","geometry":{"type":"Point","coordinates":[125.5748591,6.4579392]},"properties":{"id":"way/1322736773","osmId":1322736773,"facilityType":"hospital","name":"Davao Occidental General Hospital","address":"Davao Occidental General Hospital, Davao-Sarangani Coastal Road, Lacaron, Malita, Davao Occidental, Davao Region, 8012, Philippines","capacity":null,"hazardTypes":null}},{"type":"Feature","geometry":{"type":"Point","coordinates":[125.6019837,6.4117203]},"properties":{"id":"way/436089890","osmId":436089890,"facilityType":"hospital","name":"Malita District Hospital","address":"Malita District Hospital, Davao-Sarangani Coastal Road, Poblacion, Kidalapong, Malita, Davao Occidental, Davao Region, 8012, Philippines","capacity":null,"hazardTypes":null}},{"type":"Feature","geometry":{"type":"Point","coordinates":[125.8954986,7.1275333]},"properties":{"id":"way/208004650","osmId":208004650,"facilityType":"hospital","name":"Davao de Oro Provincial Hospital","address":"Davao de Oro Provincial Hospital, Surigao-Davao Coastal Road, Townsite, Kingking, Pantukan, Davao de Oro, Davao Region, 8809, Philippines","capacity":null,"hazardTypes":null}},{"type":"Feature","geometry":{"type":"Point","coordinates":[125.6194807,7.0997774]},"properties":{"id":"way/151363159","osmId":151363159,"facilityType":"hospital","name":"Southern Philippines Medical Center","address":"Southern Philippines Medical Center, J. P. Laurel Avenue, Kalayaan, Buhangin, Buhangin District, Davao City, Davao Region, 8000, Philippines","capacity":null,"hazardTypes":null}},{"type":"Feature","geometry":{"type":"Point","coordinates":[125.6131501,7.0951775]},"properties":{"id":"relation/13009206","osmId":13009206,"facilityType":"hospital","name":"Metro Davao Medical and Research Center","address":"Metro Davao Medical and Research Center, J. P. Laurel Avenue, Regina Dalisay Compound, 19-B Garcia Heights, Poblacion District, Davao City, Davao Region, 8000, Philippines","capacity":null,"hazardTypes":null}},{"type":"Feature","geometry":{"type":"Point","coordinates":[125.6316419,7.1219339]},"properties":{"id":"way/336604891","osmId":336604891,"facilityType":"hospital","name":"Medical Mission Group OPD","address":"Medical Mission Group OPD, La Verna Bypass Road, Pareñas Compound, Cabantian, Buhangin District, Davao City, Davao Region, 8000, Philippines","capacity":null,"hazardTypes":null}},{"type":"Feature","geometry":{"type":"Point","coordinates":[125.6053866,7.0651141]},"properties":{"id":"way/36933823","osmId":36933823,"facilityType":"hospital","name":"Anda Riverview Medical Center","address":"Anda Riverview Medical Center, A. Pichon Street, Purok 2, Barangay 2-A, Poblacion District, Davao City, Davao Region, 8000, Philippines","capacity":null,"hazardTypes":null}},{"type":"Feature","geometry":{"type":"Point","coordinates":[125.6068963,7.0705496]},"properties":{"id":"way/54237651","osmId":54237651,"facilityType":"hospital","name":"Ricardo Limso Medical Center","address":"Ricardo Limso Medical Center, Ilustre Street, Barangay 4-A, Poblacion District, Davao City, Davao Region, 8000, Philippines","capacity":null,"hazardTypes":null}},{"type":"Feature","geometry":{"type":"Point","coordinates":[125.5017576,7.0234724]},"properties":{"id":"way/144183018","osmId":144183018,"facilityType":"hospital","name":"Malta Medical Center","address":"Malta Medical Center, MacArthur Highway, Purok 20, Crossing Bayabas, Toril District, Davao City, Davao Region, 8025, Philippines","capacity":null,"hazardTypes":null}},{"type":"Feature","geometry":{"type":"Point","coordinates":[125.616989,7.0957552]},"properties":{"id":"way/315837674","osmId":315837674,"facilityType":"hospital","name":"Nephrology Center of Davao","address":"Nephrology Center of Davao, J. P. Laurel Avenue, Paciano Bangoy, Agdao District, Buhangin District, Davao City, Davao Region, 8000, Philippines","capacity":null,"hazardTypes":null}},{"type":"Feature","geometry":{"type":"Point","coordinates":[125.6034762,7.0672759]},"properties":{"id":"way/115946930","osmId":115946930,"facilityType":"hospital","name":"Friendly Care","address":"Friendly Care, Ilustre Extension, Purok 7, Barangay 2-A, Poblacion District, Davao City, Davao Region, 8000, Philippines","capacity":null,"hazardTypes":null}},{"type":"Feature","geometry":{"type":"Point","coordinates":[125.6469846,7.107036]},"properties":{"id":"node/5500538122","osmId":5500538122,"facilityType":"hospital","name":"New Day Recovery Center (Babista)","address":"New Day Recovery Center (Babista), Filipinas Avenue, Insular Village 1, Buhangin District, Davao City, Davao Region, 8000, Philippines","capacity":null,"hazardTypes":null}},{"type":"Feature","geometry":{"type":"Point","coordinates":[126.0222236,6.8952507]},"properties":{"id":"way/841143151","osmId":841143151,"facilityType":"hospital","name":"Davao Oriental Provincial Hospital","address":"Davao Oriental Provincial Hospital, Lupon, Davao Oriental, Davao Region, 8207, Philippines","capacity":null,"hazardTypes":null}},{"type":"Feature","geometry":{"type":"Point","coordinates":[126.2031403,6.9606844]},"properties":{"id":"way/317472438","osmId":317472438,"facilityType":"hospital","name":"Saint Camillus Hospital of Mati Foundation","address":"Saint Camillus Hospital of Mati Foundation, President Diosdado P. Macapagal Highway, Davao Oriental Electric Cooperative Village, Central, Tagawisan, Mati, Davao Oriental, Davao Region, 8200, Philippines","capacity":null,"hazardTypes":null}},{"type":"Feature","geometry":{"type":"Point","coordinates":[126.0717583,6.656859]},"properties":{"id":"way/974584358","osmId":974584358,"facilityType":"hospital","name":"Davao Oriental Provincial Hospital","address":"Davao Oriental Provincial Hospital, El Prudente Street, Sigaboy, Governor Generoso, Davao Oriental, Davao Region, 8210, Philippines","capacity":null,"hazardTypes":null}},{"type":"Feature","geometry":{"type":"Point","coordinates":[126.2429427,6.9446968]},"properties":{"id":"way/178427625","osmId":178427625,"facilityType":"hospital","name":"Davao Oriental Provincial Medical Center","address":"Davao Oriental Provincial Medical Center, President Diosdado P. Macapagal Highway, Sibala Village, Matiao, Mati, Davao Oriental, Davao Region, 8200, Philippines","capacity":null,"hazardTypes":null}},{"type":"Feature","geometry":{"type":"Point","coordinates":[122.1372848,7.7031241]},"properties":{"id":"way/706834455","osmId":706834455,"facilityType":"hospital","name":"Constantino Soriano Memorial Hospital","address":"Constantino Soriano Memorial Hospital, Poblacion, Siocon, Zamboanga del Norte, Zamboanga Peninsula, 7120, Philippines","capacity":null,"hazardTypes":null}},{"type":"Feature","geometry":{"type":"Point","coordinates":[122.5993239,7.792478]},"properties":{"id":"relation/18959482","osmId":18959482,"facilityType":"hospital","name":"Zamboanga Sibugay Provincial Hospital","address":"Zamboanga Sibugay Provincial Hospital, Pagadian-Zamboanga City Highway, Airways, Pangi, Zamboanga Sibugay, Zamboanga Peninsula, 7001, Philippines","capacity":null,"hazardTypes":null}},{"type":"Feature","geometry":{"type":"Point","coordinates":[122.6033627,7.7937848]},"properties":{"id":"node/11178191846","osmId":11178191846,"facilityType":"hospital","name":"Ipil Doctors Hospital","address":"Ipil Doctors Hospital, Pagadian-Zamboanga City Highway, Airways, Pangi, Zamboanga Sibugay, Zamboanga Peninsula, 7001, Philippines","capacity":null,"hazardTypes":null}},{"type":"Feature","geometry":{"type":"Point","coordinates":[122.846362,7.3652444]},"properties":{"id":"node/12626776698","osmId":12626776698,"facilityType":"hospital","name":"Olutanga Municipal Hospital","address":"Olutanga Municipal Hospital, Lutiman-Guicam-Olutanga Road, Guicam, Hula-hula, Mabuhay, Zamboanga Sibugay, Zamboanga Peninsula, Philippines","capacity":null,"hazardTypes":null}},{"type":"Feature","geometry":{"type":"Point","coordinates":[122.6414731,7.8152473]},"properties":{"id":"way/1217112497","osmId":1217112497,"facilityType":"hospital","name":"Dr. George T. Hofer Medical Center","address":"Dr. George T. Hofer Medical Center, Pagadian-Zamboanga City Highway, Ipil, Zamboanga Sibugay, Zamboanga Peninsula, 7001, Philippines","capacity":null,"hazardTypes":null}},{"type":"Feature","geometry":{"type":"Point","coordinates":[122.7673026,7.7964616]},"properties":{"id":"way/786041090","osmId":786041090,"facilityType":"hospital","name":null,"address":"Pagadian-Zamboanga City Highway, Kabasalan, Zamboanga Sibugay, Zamboanga Peninsula, 7005, Philippines","capacity":null,"hazardTypes":null}},{"type":"Feature","geometry":{"type":"Point","coordinates":[123.1644396,7.5751508]},"properties":{"id":"way/315836973","osmId":315836973,"facilityType":"hospital","name":"Margosatubig Regional Hospital","address":"Margosatubig Regional Hospital, F. Nightingale Street, Poblacion, Margosatubig, Zamboanga del Sur, Zamboanga Peninsula, 7035, Philippines","capacity":null,"hazardTypes":null}},{"type":"Feature","geometry":{"type":"Point","coordinates":[122.9448477,7.5070489]},"properties":{"id":"way/1225833891","osmId":1225833891,"facilityType":"hospital","name":"Alicia District Hospital","address":"Alicia District Hospital, Alicia-Malangas Road, Acacia, Bella, Alicia, Zamboanga Sibugay, Zamboanga Peninsula, 7040, Philippines","capacity":null,"hazardTypes":null}},{"type":"Feature","geometry":{"type":"Point","coordinates":[122.9800142,7.6829253]},"properties":{"id":"way/1217108314","osmId":1217108314,"facilityType":"hospital","name":"Wilfredo C. Palma Memorial Hospital","address":"Wilfredo C. Palma Memorial Hospital, Pagadian-Zamboanga City Highway, Poblacion, Diplahan, Zamboanga Sibugay, Zamboanga Peninsula, 7039, Philippines","capacity":null,"hazardTypes":null}},{"type":"Feature","geometry":{"type":"Point","coordinates":[123.1537314,7.8580721]},"properties":{"id":"way/1070102684","osmId":1070102684,"facilityType":"hospital","name":"Old Hospital","address":"Old Hospital, Tubod-Lakewood Road, Poblacion, Lakewood, Zamboanga del Sur, Zamboanga Peninsula, 7014, Philippines","capacity":null,"hazardTypes":null}},{"type":"Feature","geometry":{"type":"Point","coordinates":[123.0585704,7.7279715]},"properties":{"id":"way/236952718","osmId":236952718,"facilityType":"hospital","name":"Saint John General Hospital of Buug","address":"Saint John General Hospital of Buug, Pagadian-Zamboanga City Highway, Poblacion, Buug, Zamboanga Sibugay, Zamboanga Peninsula, 7009, Philippines","capacity":null,"hazardTypes":null}},{"type":"Feature","geometry":{"type":"Point","coordinates":[123.0174273,7.6433969]},"properties":{"id":"way/1217340718","osmId":1217340718,"facilityType":"hospital","name":"Malangas Emergency Infirmary","address":"Malangas Emergency Infirmary, Malangas Highway, Poblacion, Candiis, Zamboanga Sibugay, Zamboanga Peninsula, 7038, Philippines","capacity":null,"hazardTypes":null}},{"type":"Feature","geometry":{"type":"Point","coordinates":[122.9394402,7.6460651]},"properties":{"id":"node/11178095337","osmId":11178095337,"facilityType":"hospital","name":"MJM Multi-Specialist Medical and Diagnostic Center","address":"MJM Multi-Specialist Medical and Diagnostic Center, Pagadian-Zamboanga City Highway, Purok 2, Imelda, Zamboanga Sibugay, Zamboanga Peninsula, 7007, Philippines","capacity":null,"hazardTypes":null}},{"type":"Feature","geometry":{"type":"Point","coordinates":[123.4462127,7.8305098]},"properties":{"id":"way/1384234855","osmId":1384234855,"facilityType":"hospital","name":"Pagadian Doctors Hospital","address":"Pagadian Doctors Hospital, J. P. Rizal Avenue, Papaya, Pagadian, Zamboanga del Sur, Zamboanga Peninsula, 7016, Philippines","capacity":null,"hazardTypes":null}},{"type":"Feature","geometry":{"type":"Point","coordinates":[123.495783,7.9101506]},"properties":{"id":"way/1003016532","osmId":1003016532,"facilityType":"hospital","name":"Kuta Major Cesar L. Sang-an Station Hospital","address":"Kuta Major Cesar L. Sang-an Station Hospital, Camp Major Cesar L. Sang-an, Labangan, Zamboanga del Sur, Zamboanga Peninsula, 7017, Philippines","capacity":null,"hazardTypes":null}},{"type":"Feature","geometry":{"type":"Point","coordinates":[123.4189816,7.8253827]},"properties":{"id":"way/694939010","osmId":694939010,"facilityType":"hospital","name":"Jamelarin Hospital","address":"Jamelarin Hospital, J. P. Rizal Avenue, Upper, Pagadian, Zamboanga del Sur, Zamboanga Peninsula, 7016, Philippines","capacity":null,"hazardTypes":null}},{"type":"Feature","geometry":{"type":"Point","coordinates":[123.4335475,7.8233141]},"properties":{"id":"way/694644082","osmId":694644082,"facilityType":"hospital","name":"Borbon General Hospital","address":"Borbon General Hospital, J. P. Rizal Avenue, Riverside, Pagadian, Zamboanga del Sur, Zamboanga Peninsula, 7016, Philippines","capacity":null,"hazardTypes":null}},{"type":"Feature","geometry":{"type":"Point","coordinates":[123.4391684,7.8251082]},"properties":{"id":"way/237824946","osmId":237824946,"facilityType":"hospital","name":"Mendero General Hospital- Blg.2","address":"Mendero General Hospital- Blg.2, Alano Avenue, Sunshine, San Francisco, Zamboanga del Sur, Zamboanga Peninsula, 7016, Philippines","capacity":null,"hazardTypes":null}},{"type":"Feature","geometry":{"type":"Point","coordinates":[123.4392263,7.8248806]},"properties":{"id":"way/237824945","osmId":237824945,"facilityType":"hospital","name":"Mendero General Hospital","address":"Mendero General Hospital, Alano Avenue, Sunshine, San Francisco, Zamboanga del Sur, Zamboanga Peninsula, 7016, Philippines","capacity":null,"hazardTypes":null}},{"type":"Feature","geometry":{"type":"Point","coordinates":[123.4434546,7.8281221]},"properties":{"id":"node/4356839892","osmId":4356839892,"facilityType":"hospital","name":"Metro Pagadian Hospital Inc","address":"Metro Pagadian Hospital Inc, V. Sagun Street, Gatas, Pagadian, Zamboanga del Sur, Zamboanga Peninsula, 7016, Philippines","capacity":null,"hazardTypes":null}},{"type":"Feature","geometry":{"type":"Point","coordinates":[123.4373242,7.8251868]},"properties":{"id":"node/4412555190","osmId":4412555190,"facilityType":"hospital","name":"Hofileña Hospital","address":"Hofileña Hospital, F. S. Pajares Avenue, Gatas, Pagadian, Zamboanga del Sur, Zamboanga Peninsula, 7016, Philippines","capacity":null,"hazardTypes":null}},{"type":"Feature","geometry":{"type":"Point","coordinates":[123.7725741,7.9156939]},"properties":{"id":"relation/15990561","osmId":15990561,"facilityType":"hospital","name":"Kapatagan Provincial Hospital","address":"Kapatagan Provincial Hospital, Linamon-Zamboanga Road, Nilo, Maranding, Lanao del Norte, Northern Mindanao, 9211, Philippines","capacity":null,"hazardTypes":null}},{"type":"Feature","geometry":{"type":"Point","coordinates":[123.7734139,7.9266499]},"properties":{"id":"way/597196681","osmId":597196681,"facilityType":"hospital","name":"Bontilao Country Hospital","address":"Bontilao Country Hospital, Linamon-Zamboanga Road, Apitong, Lala, Lanao del Norte, Northern Mindanao, 9211, Philippines","capacity":null,"hazardTypes":null}},{"type":"Feature","geometry":{"type":"Point","coordinates":[123.77141,7.9236]},"properties":{"id":"node/6377418764","osmId":6377418764,"facilityType":"hospital","name":"Goso Community Hospital","address":"Goso Community Hospital, Lala, Maranding, Lanao del Norte, Northern Mindanao, 9211, Philippines","capacity":null,"hazardTypes":null}},{"type":"Feature","geometry":{"type":"Point","coordinates":[123.77637,7.92294]},"properties":{"id":"node/6377419053","osmId":6377419053,"facilityType":"hospital","name":"Maranding Community Hospital","address":"Maranding Community Hospital, Lala-Salvador-Tubod Road, Narra, Salvador, Lanao del Norte, Northern Mindanao, 9211, Philippines","capacity":null,"hazardTypes":null}},{"type":"Feature","geometry":{"type":"Point","coordinates":[123.7230827,7.8038743]},"properties":{"id":"way/922900813","osmId":922900813,"facilityType":"hospital","name":"Sultan Naga Dimaporo Provincial Hospital","address":"Sultan Naga Dimaporo Provincial Hospital, Malabang-Tukuran Road, Poblacion, Sultan Naga Dimaporo, Lanao del Norte, Northern Mindanao, 9215, Philippines","capacity":null,"hazardTypes":null}},{"type":"Feature","geometry":{"type":"Point","coordinates":[123.4293974,7.8438577]},"properties":{"id":"way/237828924","osmId":237828924,"facilityType":"hospital","name":"Zamboanga del Sur Medical Center","address":"Zamboanga del Sur Medical Center, Dao Road, Lasaran, Dao, Zamboanga del Sur, Zamboanga Peninsula, 7016, Philippines","capacity":null,"hazardTypes":null}},{"type":"Feature","geometry":{"type":"Point","coordinates":[123.4307156,7.8438038]},"properties":{"id":"node/7779508485","osmId":7779508485,"facilityType":"hospital","name":"COVID-19 Laboratory","address":"COVID-19 Laboratory, Dao Road, Lasaran, Dao, Zamboanga del Sur, Zamboanga Peninsula, 7016, Philippines","capacity":null,"hazardTypes":null}},{"type":"Feature","geometry":{"type":"Point","coordinates":[123.7703046,7.9014345]},"properties":{"id":"node/4132639812","osmId":4132639812,"facilityType":"hospital","name":"Delbert Jon's Polyclinic","address":"Delbert Jon's Polyclinic, Linamon-Zamboanga Road, Poblacion, Kapatagan, Lanao del Norte, Northern Mindanao, 9214, Philippines","capacity":null,"hazardTypes":null}},{"type":"Feature","geometry":{"type":"Point","coordinates":[124.2380587,7.1980673]},"properties":{"id":"way/139509883","osmId":139509883,"facilityType":"hospital","name":"Notre Dame Hospital","address":"Notre Dame Hospital, Sinsuat Avenue, Rosary Heights 12, Poblacion, Tamontaka, Cotabato City, Bangsamoro, 9600, Philippines","capacity":null,"hazardTypes":null}},{"type":"Feature","geometry":{"type":"Point","coordinates":[124.2468062,7.2243487]},"properties":{"id":"way/139509437","osmId":139509437,"facilityType":"hospital","name":"Cotabato Puericulture Center & General Hospital","address":"Cotabato Puericulture Center & General Hospital, Doroteo Street, Rosary Heights 1, Bagua, Cotabato City, Bangsamoro, 9600, Philippines","capacity":null,"hazardTypes":null}},{"type":"Feature","geometry":{"type":"Point","coordinates":[124.2423067,7.2269208]},"properties":{"id":"way/289408001","osmId":289408001,"facilityType":"hospital","name":"Tanmiah Hospital","address":"Tanmiah Hospital, Jose Lim Sr. Avenue, Bagua 1, Poblacion, Kalanganan 1, Cotabato City, Bangsamoro, 9600, Philippines","capacity":null,"hazardTypes":null}},{"type":"Feature","geometry":{"type":"Point","coordinates":[124.2504273,7.2206625]},"properties":{"id":"way/139509683","osmId":139509683,"facilityType":"hospital","name":"Cotabato Medical Specialist Hospital","address":"Cotabato Medical Specialist Hospital, Quezon Avenue, Quezon, Poblacion, Cotabato City, Bangsamoro, 9600, Philippines","capacity":null,"hazardTypes":null}},{"type":"Feature","geometry":{"type":"Point","coordinates":[124.2485179,7.2189957]},"properties":{"id":"node/6581661504","osmId":6581661504,"facilityType":"hospital","name":"United Doctors Hospital","address":"United Doctors Hospital, Notre Dame Avenue, Poblacion 4, Poblacion, Cotabato City, Bangsamoro, 9600, Philippines","capacity":null,"hazardTypes":null}},{"type":"Feature","geometry":{"type":"Point","coordinates":[124.3281771,7.8763111]},"properties":{"id":"way/555892682","osmId":555892682,"facilityType":"hospital","name":"Tamparan Global Hospital","address":"Tamparan Global Hospital, Lake Lanao Circumferential Road, Tamparan, Lanao del Sur, Bangsamoro, 9712, Philippines","capacity":null,"hazardTypes":null}},{"type":"Feature","geometry":{"type":"Point","coordinates":[124.2948049,8.003623]},"properties":{"id":"node/9654020223","osmId":9654020223,"facilityType":"hospital","name":"Salaam Hospital","address":"Salaam Hospital, Makalilay Street, Pangarungan Village, Marawi City, Lanao del Sur, Bangsamoro, 9700, Philippines","capacity":null,"hazardTypes":null}},{"type":"Feature","geometry":{"type":"Point","coordinates":[124.2692633,7.2358081]},"properties":{"id":"way/643557962","osmId":643557962,"facilityType":"hospital","name":"Cotabato Sanitarium Hospital","address":"Cotabato Sanitarium Hospital, Cotabato City East Diversion Road, Ungap, Sultan Kudarat, Maguindanao del Norte, Bangsamoro, 9605, Philippines","capacity":null,"hazardTypes":null}},{"type":"Feature","geometry":{"type":"Point","coordinates":[124.0776962,7.5803474]},"properties":{"id":"node/9215191066","osmId":9215191066,"facilityType":"hospital","name":"Dr. Serapio B. Montaner Memorial Hospital","address":"Dr. Serapio B. Montaner Memorial Hospital, Narciso Ramos Highway, Bagoaingud, Malabang, Lanao del Sur, Bangsamoro, 9300, Philippines","capacity":null,"hazardTypes":null}},{"type":"Feature","geometry":{"type":"Point","coordinates":[124.2366278,7.1998768]},"properties":{"id":"way/139509881","osmId":139509881,"facilityType":"hospital","name":"Cotabato Regional & Medical Center","address":"Cotabato Regional & Medical Center, Sinsuat Avenue, Rosary Heights 12, Poblacion, Tamontaka, Cotabato City, Bangsamoro, 9600, Philippines","capacity":null,"hazardTypes":null}},{"type":"Feature","geometry":{"type":"Point","coordinates":[124.238303,7.1999658]},"properties":{"id":"way/315836857","osmId":315836857,"facilityType":"hospital","name":"Maguindanao Polyclinic","address":"Maguindanao Polyclinic, Sinsuat Avenue, Rosary Heights 12, Poblacion, Tamontaka, Cotabato City, Bangsamoro, 9600, Philippines","capacity":null,"hazardTypes":null}},{"type":"Feature","geometry":{"type":"Point","coordinates":[124.8403063,7.8305393]},"properties":{"id":"node/11601538769","osmId":11601538769,"facilityType":"hospital","name":"Pangantucan Medical Hospital","address":"Pangantucan Medical Hospital, Maramag-Maradugao Road, Riverside, Adtuyon, Pangantucan, Bukidnon, Northern Mindanao, 8727, Philippines","capacity":null,"hazardTypes":null}},{"type":"Feature","geometry":{"type":"Point","coordinates":[124.7220806,7.6381725]},"properties":{"id":"node/5456387421","osmId":5456387421,"facilityType":"hospital","name":"Wao District Hospital","address":"Wao District Hospital, Silverio Eleazar Street, Eastern Wao, Wao, Lanao del Sur, Bangsamoro, 9716, Philippines","capacity":null,"hazardTypes":null}},{"type":"Feature","geometry":{"type":"Point","coordinates":[124.5375757,7.2091047]},"properties":{"id":"way/786339310","osmId":786339310,"facilityType":"hospital","name":"Midsayap Diagnostic Hospital (MDC)","address":"Midsayap Diagnostic Hospital (MDC), Davao-Cotabato National Highway, Poblacion 8, Midsayap, North Cotabato, Soccsksargen, 9410, Philippines","capacity":null,"hazardTypes":null}},{"type":"Feature","geometry":{"type":"Point","coordinates":[124.5192608,7.2411805]},"properties":{"id":"way/1330784639","osmId":1330784639,"facilityType":"hospital","name":"Dr. Ramon Pesante Clinic and Hospital","address":"Dr. Ramon Pesante Clinic and Hospital, Davao-Cotabato National Highway, Poblacion, Upper Baguer, Libungan, North Cotabato, Soccsksargen, 9411, Philippines","capacity":null,"hazardTypes":null}},{"type":"Feature","geometry":{"type":"Point","coordinates":[124.5149996,7.2442016]},"properties":{"id":"way/315837644","osmId":315837644,"facilityType":"hospital","name":"Mount of Blessings Hospital","address":"Mount of Blessings Hospital, Davao-Cotabato National Highway, Poblacion, Upper Baguer, Batiocan, North Cotabato, Soccsksargen, 9411, Philippines","capacity":null,"hazardTypes":null}},{"type":"Feature","geometry":{"type":"Point","coordinates":[124.5417777,7.2041891]},"properties":{"id":"node/4414092992","osmId":4414092992,"facilityType":"hospital","name":"Midsayap Community Doctors Hospital","address":"Midsayap Community Doctors Hospital, Davao-Cotabato National Highway, Poblacion 8, Sadaan, North Cotabato, Soccsksargen, 9410, Philippines","capacity":null,"hazardTypes":null}},{"type":"Feature","geometry":{"type":"Point","coordinates":[124.5376843,7.2091737]},"properties":{"id":"node/4414081395","osmId":4414081395,"facilityType":"hospital","name":"Midsayap Diagnostic Hospital (MDC)","address":"Midsayap Diagnostic Hospital (MDC), Davao-Cotabato National Highway, Poblacion 8, Midsayap, North Cotabato, Soccsksargen, 9410, Philippines","capacity":null,"hazardTypes":null}},{"type":"Feature","geometry":{"type":"Point","coordinates":[125.2960789,7.3287854]},"properties":{"id":"way/1020509873","osmId":1020509873,"facilityType":"hospital","name":"Marilog District Hospital","address":"Marilog District Hospital, Davao-Bukidnon Road, New Lajog, Marilog Proper, Marilog District, Davao City, Davao Region, 8000, Philippines","capacity":null,"hazardTypes":null}},{"type":"Feature","geometry":{"type":"Point","coordinates":[125.0087215,7.7647277]},"properties":{"id":"way/847354756","osmId":847354756,"facilityType":"hospital","name":"Bukidnon Provincial Hospital - Maramag","address":"Bukidnon Provincial Hospital - Maramag, North Poblacion, Maramag, Bukidnon, Northern Mindanao, 8714, Philippines","capacity":null,"hazardTypes":null}},{"type":"Feature","geometry":{"type":"Point","coordinates":[125.0095043,7.773364]},"properties":{"id":"way/159677139","osmId":159677139,"facilityType":"hospital","name":"St. Joseph Southern Bukidnon Hospital","address":"St. Joseph Southern Bukidnon Hospital, Sayre Highway, Purok 6, Panadtalan, Maramag, Bukidnon, Northern Mindanao, 8714, Philippines","capacity":null,"hazardTypes":null}},{"type":"Feature","geometry":{"type":"Point","coordinates":[125.3217304,7.9253458]},"properties":{"id":"way/771686694","osmId":771686694,"facilityType":"hospital","name":"San Fernando Provincial Hospital","address":"San Fernando Provincial Hospital, Kapalong-Talaingod-Valencia Road, Purok 4, Lagsoon, Colon, San Fernando, Bukidnon, Northern Mindanao, 8711, Philippines","capacity":null,"hazardTypes":null}},{"type":"Feature","geometry":{"type":"Point","coordinates":[125.0881213,7.8985219]},"properties":{"id":"way/315701973","osmId":315701973,"facilityType":"hospital","name":"Ester Hospital","address":"Ester Hospital, Sayre Highway, Sugarland, Poblacion, Lumbo, Valencia, Bukidnon, Northern Mindanao, 8709, Philippines","capacity":null,"hazardTypes":null}},{"type":"Feature","geometry":{"type":"Point","coordinates":[125.0921139,7.9078337]},"properties":{"id":"way/179963642","osmId":179963642,"facilityType":"hospital","name":"Laviña General Hospital","address":"Laviña General Hospital, Manuel L. Quezon Street, Purok 11, Poblacion, Valencia, Bukidnon, Northern Mindanao, 8709, Philippines","capacity":null,"hazardTypes":null}},{"type":"Feature","geometry":{"type":"Point","coordinates":[125.1028531,7.7277913]},"properties":{"id":"way/276450265","osmId":276450265,"facilityType":"hospital","name":"St. Ann Medical Hospital","address":"St. Ann Medical Hospital, J. A. Fortich Road, Poblacion, Libertad, Quezon, Bukidnon, Northern Mindanao, 8715, Philippines","capacity":null,"hazardTypes":null}},{"type":"Feature","geometry":{"type":"Point","coordinates":[125.0926397,7.9114088]},"properties":{"id":"way/196675895","osmId":196675895,"facilityType":"hospital","name":"Valencia Medical Hospital","address":"Valencia Medical Hospital, Sayre Highway, Purok 11, Poblacion, Valencia, Bukidnon, Northern Mindanao, 8709, Philippines","capacity":null,"hazardTypes":null}},{"type":"Feature","geometry":{"type":"Point","coordinates":[125.0921098,7.9112659]},"properties":{"id":"way/171348867","osmId":171348867,"facilityType":"hospital","name":"Abella Midway Hospital","address":"Abella Midway Hospital, P. Valero Street, Purok 11, Poblacion, Valencia, Bukidnon, Northern Mindanao, 8709, Philippines","capacity":null,"hazardTypes":null}},{"type":"Feature","geometry":{"type":"Point","coordinates":[125.0061702,7.981872]},"properties":{"id":"way/131479235","osmId":131479235,"facilityType":"hospital","name":"Strahle Memorial Hospital","address":"Strahle Memorial Hospital, College Avenue, Valencia, Bukidnon, Northern Mindanao, Philippines","capacity":null,"hazardTypes":null}},{"type":"Feature","geometry":{"type":"Point","coordinates":[125.1000095,7.7309998]},"properties":{"id":"way/315838865","osmId":315838865,"facilityType":"hospital","name":"Saint Claire Hospital","address":"Saint Claire Hospital, J. A. Fortich Road, Poblacion, Libertad, Quezon, Bukidnon, Northern Mindanao, 8715, Philippines","capacity":null,"hazardTypes":null}},{"type":"Feature","geometry":{"type":"Point","coordinates":[125.0921043,7.9147799]},"properties":{"id":"way/180830471","osmId":180830471,"facilityType":"hospital","name":"Valencia Polymedic General Hospital","address":"Valencia Polymedic General Hospital, Sayre Highway, Purok 11, Poblacion, Bagontaas, Valencia, Bukidnon, Northern Mindanao, 8709, Philippines","capacity":null,"hazardTypes":null}},{"type":"Feature","geometry":{"type":"Point","coordinates":[125.114497,7.6993296]},"properties":{"id":"way/276456244","osmId":276456244,"facilityType":"hospital","name":"Salawagan Hospital","address":"Salawagan Hospital, Davao-Bukidnon Road, Quezon, Bukidnon, Northern Mindanao, 8715, Philippines","capacity":null,"hazardTypes":null}},{"type":"Feature","geometry":{"type":"Point","coordinates":[125.001906,7.7580217]},"properties":{"id":"node/4392846395","osmId":4392846395,"facilityType":"hospital","name":"Boncas Holy Child Hospital","address":"Boncas Holy Child Hospital, M. H. Del Pilar Street, Purok 5, Maramag, Bukidnon, Northern Mindanao, 8714, Philippines","capacity":null,"hazardTypes":null}},{"type":"Feature","geometry":{"type":"Point","coordinates":[124.9960178,7.6795182]},"properties":{"id":"way/1063114556","osmId":1063114556,"facilityType":"hospital","name":"Don Carlos Doctor's Hospital","address":"Don Carlos Doctor's Hospital, E. Aguinaldo Street, Pinamaloy, Don Carlos, Bukidnon, Northern Mindanao, 8712, Philippines","capacity":null,"hazardTypes":null}},{"type":"Feature","geometry":{"type":"Point","coordinates":[124.9966793,7.6816927]},"properties":{"id":"way/315701476","osmId":315701476,"facilityType":"hospital","name":"Simbulan Sto. Niño General Hospital","address":"Simbulan Sto. Niño General Hospital, Lamac-lamac Street, Don Carlos Sur, Pinamaloy, Don Carlos, Bukidnon, Northern Mindanao, 8712, Philippines","capacity":null,"hazardTypes":null}},{"type":"Feature","geometry":{"type":"Point","coordinates":[124.991968,7.5716085]},"properties":{"id":"way/647621115","osmId":647621115,"facilityType":"hospital","name":"Bukidnon Provincial Hospital - Kibawe","address":"Bukidnon Provincial Hospital - Kibawe, Sayre Highway, Purok 1-A, Quarry, Labuagon, Kibawe, Bukidnon, Northern Mindanao, 8720, Philippines","capacity":null,"hazardTypes":null}},{"type":"Feature","geometry":{"type":"Point","coordinates":[125.0559203,7.2441744]},"properties":{"id":"way/653870260","osmId":653870260,"facilityType":"hospital","name":"Antipas Medical Specialists Hospital","address":"Antipas Medical Specialists Hospital, Kidapawan-Arakan Road, Poblacion, Kiyaab, Antipas, North Cotabato, Soccsksargen, 9414, Philippines","capacity":null,"hazardTypes":null}},{"type":"Feature","geometry":{"type":"Point","coordinates":[125.0633484,7.2413879]},"properties":{"id":"way/945015087","osmId":945015087,"facilityType":"hospital","name":"Arakan Valley District Hospital","address":"Arakan Valley District Hospital, Antipas-Magpet Road, Magsaysay, Antipas, North Cotabato, Soccsksargen, 9414, Philippines","capacity":null,"hazardTypes":null}},{"type":"Feature","geometry":{"type":"Point","coordinates":[125.2338549,7.5192761]},"properties":{"id":"relation/11694356","osmId":11694356,"facilityType":"hospital","name":"Buda Community Health Care Center","address":"Buda Community Health Care Center, Buda, Marilog District, Davao City, Davao Region, 8000, Philippines","capacity":null,"hazardTypes":null}},{"type":"Feature","geometry":{"type":"Point","coordinates":[125.3286159,7.9138884]},"properties":{"id":"way/441574367","osmId":441574367,"facilityType":"hospital","name":null,"address":"Kapalong-Talaingod-Valencia Road, Purok 3, Lawatano, San Fernando, Bukidnon, Northern Mindanao, Philippines","capacity":null,"hazardTypes":null}},{"type":"Feature","geometry":{"type":"Point","coordinates":[125.0922995,7.9123116]},"properties":{"id":"way/159676038","osmId":159676038,"facilityType":"hospital","name":"Adventist Medical Center - Valencia City","address":"Adventist Medical Center - Valencia City, A. Aguilar Street, Purok 11, Poblacion, Valencia, Bukidnon, Northern Mindanao, 8709, Philippines","capacity":null,"hazardTypes":null}},{"type":"Feature","geometry":{"type":"Point","coordinates":[125.0047869,7.8948481]},"properties":{"id":"node/7649565087","osmId":7649565087,"facilityType":"hospital","name":"Shalom Holistic Care Clinic","address":"Shalom Holistic Care Clinic, Valencia-Pangantucan Road, Kibalaan, Barobo, Valencia, Bukidnon, Northern Mindanao, 8709, Philippines","capacity":null,"hazardTypes":null}},{"type":"Feature","geometry":{"type":"Point","coordinates":[125.0846055,7.9049434]},"properties":{"id":"node/6123357390","osmId":6123357390,"facilityType":"hospital","name":"Medidas Medical Center, Inc.","address":"Medidas Medical Center, Inc., Kanlaon Street, Purok 11, Poblacion, Lumbo, Valencia, Bukidnon, Northern Mindanao, 8709, Philippines","capacity":null,"hazardTypes":null}},{"type":"Feature","geometry":{"type":"Point","coordinates":[125.4971102,7.3730821]},"properties":{"id":"node/1251325547","osmId":1251325547,"facilityType":"hospital","name":"Paquibato District Hospital","address":"Paquibato District Hospital, Mabuhay-Pañalum-Paquibato Road, Orchids, Paquibato Proper, Paquibato District, Davao City, Davao Region, 8000, Philippines","capacity":null,"hazardTypes":null}},{"type":"Feature","geometry":{"type":"Point","coordinates":[125.7039855,7.3524336]},"properties":{"id":"way/1375784954","osmId":1375784954,"facilityType":"hospital","name":"Davao del Norte Hospital","address":"Davao del Norte Hospital, Purok 8, Ising, Asuncion, Carmen, Davao del Norte, Davao Region, 8101, Philippines","capacity":null,"hazardTypes":null}},{"type":"Feature","geometry":{"type":"Point","coordinates":[125.6206548,7.4132846]},"properties":{"id":"way/315700706","osmId":315700706,"facilityType":"hospital","name":"Davao Penal Colony Hospital","address":"Davao Penal Colony Hospital, Dapecol, Braulio E. Dujali, Davao del Norte, Davao Region, 8106, Philippines","capacity":null,"hazardTypes":null}},{"type":"Feature","geometry":{"type":"Point","coordinates":[125.6944935,7.3317605]},"properties":{"id":"way/1081275844","osmId":1081275844,"facilityType":"hospital","name":"Gaviola Hospital","address":"Gaviola Hospital, Davao-Agusan National Highway, Everlasting, Santo Niño, Carmen, Davao del Norte, Davao Region, 8101, Philippines","capacity":null,"hazardTypes":null}},{"type":"Feature","geometry":{"type":"Point","coordinates":[125.6825715,7.306322]},"properties":{"id":"way/144959446","osmId":144959446,"facilityType":"hospital","name":"Carmelite Hospital","address":"Carmelite Hospital, 6599, Davao-Agusan National Highway, Puso, San Francisco, Panabo, Davao del Norte, Davao Region, 8105, Philippines","capacity":null,"hazardTypes":null}},{"type":"Feature","geometry":{"type":"Point","coordinates":[125.5798651,7.3963411]},"properties":{"id":"way/694817375","osmId":694817375,"facilityType":"hospital","name":"Tadeco Hospital","address":"Tadeco Hospital, Tadeco Central, A. O. Floirendo, Panabo, Davao del Norte, Davao Region, 8105, Philippines","capacity":null,"hazardTypes":null}},{"type":"Feature","geometry":{"type":"Point","coordinates":[125.6869178,7.3143044]},"properties":{"id":"way/175209666","osmId":175209666,"facilityType":"hospital","name":"Cainglet Medical Hospital","address":"Cainglet Medical Hospital, Davao-Agusan National Highway, Purok 1, Salvacion, Panabo, Davao del Norte, Davao Region, 8105, Philippines","capacity":null,"hazardTypes":null}},{"type":"Feature","geometry":{"type":"Point","coordinates":[125.6788354,7.303219]},"properties":{"id":"way/148820784","osmId":148820784,"facilityType":"hospital","name":"Panabo Polymedic Hospital","address":"Panabo Polymedic Hospital, Quirino Street, Ricsyl Village, New Visayas, Panabo, Davao del Norte, Davao Region, 8105, Philippines","capacity":null,"hazardTypes":null}},{"type":"Feature","geometry":{"type":"Point","coordinates":[125.6837072,7.3018384]},"properties":{"id":"way/304043825","osmId":304043825,"facilityType":"hospital","name":"Somozo General Hospital","address":"Somozo General Hospital, Quezon Street, Ybanez Subdivision, New Pandan, Panabo, Davao del Norte, Davao Region, 8105, Philippines","capacity":null,"hazardTypes":null}},{"type":"Feature","geometry":{"type":"Point","coordinates":[125.6782721,7.2940067]},"properties":{"id":"way/173143301","osmId":173143301,"facilityType":"hospital","name":"Good Shepherd Hospital of Panabo","address":"Good Shepherd Hospital of Panabo, Davao-Agusan National Highway, Gabi, Gredu, Panabo, Davao del Norte, Davao Region, 8105, Philippines","capacity":null,"hazardTypes":null}},{"type":"Feature","geometry":{"type":"Point","coordinates":[125.7954144,7.4318366]},"properties":{"id":"way/175269701","osmId":175269701,"facilityType":"hospital","name":"Medical Mission Group Hospital","address":"Medical Mission Group Hospital, Davao-Agusan National Highway, Rambutan, Visayan Village, Tagum, Davao del Norte, Davao Region, 8100, Philippines","capacity":null,"hazardTypes":null}},{"type":"Feature","geometry":{"type":"Point","coordinates":[125.8129213,7.4472426]},"properties":{"id":"way/145077157","osmId":145077157,"facilityType":"hospital","name":"Christ the King Specialists Hospital","address":"Christ the King Specialists Hospital, Zafra Street, Narra, Magugpo East, Tagum, Davao del Norte, Davao Region, 8100, Philippines","capacity":null,"hazardTypes":null}},{"type":"Feature","geometry":{"type":"Point","coordinates":[125.7941983,7.428921]},"properties":{"id":"way/1184370155","osmId":1184370155,"facilityType":"hospital","name":"Tagum Global Hospital","address":"Tagum Global Hospital, Davao-Agusan National Highway, Cattleya, Visayan Village, Tagum, Davao del Norte, Davao Region, 8100, Philippines","capacity":null,"hazardTypes":null}},{"type":"Feature","geometry":{"type":"Point","coordinates":[125.8026441,7.4482563]},"properties":{"id":"way/145078955","osmId":145078955,"facilityType":"hospital","name":"United Tagum Doctors Hospital","address":"United Tagum Doctors Hospital, Sobrecarey Street, Everlasting, Magugpo Poblacion, Tagum, Davao del Norte, Davao Region, 8100, Philippines","capacity":null,"hazardTypes":null}},{"type":"Feature","geometry":{"type":"Point","coordinates":[125.8035891,7.4391001]},"properties":{"id":"node/8444127218","osmId":8444127218,"facilityType":"hospital","name":"Tagum Doctors Hospital","address":"Tagum Doctors Hospital, Davao-Agusan National Highway, Everlasting, Magugpo Poblacion, Tagum, Davao del Norte, Davao Region, 8100, Philippines","capacity":null,"hazardTypes":null}},{"type":"Feature","geometry":{"type":"Point","coordinates":[125.7080139,7.5842687]},"properties":{"id":"way/180934887","osmId":180934887,"facilityType":"hospital","name":"Davao del Norte Hospital - Kapalong Zone","address":"Davao del Norte Hospital - Kapalong Zone, Quezon Street, Purok 10-A, Maniki, Kapalong, Davao del Norte, Davao Region, 8113, Philippines","capacity":null,"hazardTypes":null}},{"type":"Feature","geometry":{"type":"Point","coordinates":[125.7056111,7.5862643]},