{"type":"FeatureCollection","features":[{"type":"Feature","geometry":{"type":"Point","coordinates":[121.042361,14.4427224]},"properties":{"id":"way/431329347","osmId":431329347,"facilityType":"multi_purpose","name":"Intercity Homes Multi-Purpose Building","address":"Intercity Homes Multi-Purpose Building, Valencia, Cupang, Muntinlupa District 2, Muntinlupa, Southern Manila District, Metro Manila, 1771, Philippines","capacity":null,"hazardTypes":null}},{"type":"Feature","geometry":{"type":"Point","coordinates":[121.040794,14.4631361]},"properties":{"id":"node/11372823696","osmId":11372823696,"facilityType":"multi_purpose","name":"UPS IV Multi-Purpose Building","address":"UPS IV Multi-Purpose Building, Cadena de Amor Street, United Parañaque Subdivision IV, Marcelo Green Village, Parañaque District 2, Parañaque, Southern Manila District, Metro Manila, 1717, Philippines","capacity":null,"hazardTypes":null}},{"type":"Feature","geometry":{"type":"Point","coordinates":[121.0196176,14.3866015]},"properties":{"id":"way/1078727739","osmId":1078727739,"facilityType":"multi_purpose","name":"JRF Multi-Purpose Hall - Katarungan Village","address":"JRF Multi-Purpose Hall - Katarungan Village, G. Araneta Street, Poblacion, Muntinlupa District 1, Muntinlupa, Southern Manila District, Metro Manila, 1772, Philippines","capacity":null,"hazardTypes":null}},{"type":"Feature","geometry":{"type":"Point","coordinates":[121.043561,14.3812472]},"properties":{"id":"way/259151484","osmId":259151484,"facilityType":"multi_purpose","name":"Camella Homes-3 Multi-Purpose Hall/ Day Care Center","address":"Camella Homes-3 Multi-Purpose Hall/ Day Care Center, Sagittarius Street, Tunasan, Muntinlupa District 1, Muntinlupa, Southern Manila District, Metro Manila, 1773, Philippines","capacity":null,"hazardTypes":null}},{"type":"Feature","geometry":{"type":"Point","coordinates":[121.0526178,14.5633218]},"properties":{"id":"way/262924584","osmId":262924584,"facilityType":"multi_purpose","name":"Cembo Multi-purpose Hall","address":"Cembo Multi-purpose Hall, Narra Street, Cembo, Taguig District 2, Makati, Southern Manila District, Metro Manila, 1640, Philippines","capacity":null,"hazardTypes":null}},{"type":"Feature","geometry":{"type":"Point","coordinates":[121.0646856,14.5571798]},"properties":{"id":"way/770814997","osmId":770814997,"facilityType":"multi_purpose","name":"East Rembo Multi-purpose Hall","address":"East Rembo Multi-purpose Hall, 5th Avenue, Cavalry Hills Village, East Rembo, Taguig District 2, Makati, Southern Manila District, Metro Manila, 1643, Philippines","capacity":null,"hazardTypes":null}},{"type":"Feature","geometry":{"type":"Point","coordinates":[121.013669,14.5907524]},"properties":{"id":"way/546879162","osmId":546879162,"facilityType":"multi_purpose","name":"Pandacan Transport and Multi-purpose Cooperative","address":"Pandacan Transport and Multi-purpose Cooperative, Pandacan, Sixth District, Manila, Capital District, Metro Manila, 1011, Philippines","capacity":null,"hazardTypes":null}}]}