{"type":"FeatureCollection","features":[{"type":"Feature","geometry":{"type":"Point","coordinates":[124.1389421,6.2987636]},"properties":{"id":"way/1068744413","osmId":1068744413,"facilityType":"multi_purpose","name":"Langali Multi-Purpose Hall","address":"Langali Multi-Purpose Hall, Palimbang-Kalamansig Road, Palimbang, Sultan Kudarat, Soccsksargen, 9809, Philippines","capacity":"100-250","hazardTypes":["earthquake"]}},{"type":"Feature","geometry":{"type":"Point","coordinates":[124.3180941,6.1264385]},"properties":{"id":"way/1069514667","osmId":1069514667,"facilityType":"multi_purpose","name":"Kolong-Kolong Multi-Purpose Hall","address":"Kolong-Kolong Multi-Purpose Hall, Datu Sabiwang, Sultan Kudarat, Soccsksargen, Philippines","capacity":"100-250","hazardTypes":["flood"]}},{"type":"Feature","geometry":{"type":"Point","coordinates":[124.7121017,6.2247961]},"properties":{"id":"node/6605209844","osmId":6605209844,"facilityType":"multi_purpose","name":"Lake Sebu National High School Multi-Purpose Cooperative","address":"Lake Sebu National High School Multi-Purpose Cooperative, Surallah-Lake Sebu Road, Lot 70, Lake Sebu, South Cotabato, Soccsksargen, 9514, Philippines","capacity":null,"hazardTypes":null}},{"type":"Feature","geometry":{"type":"Point","coordinates":[125.0650251,6.2155938]},"properties":{"id":"way/692167148","osmId":692167148,"facilityType":"multi_purpose","name":"Polomolok Multi Purpose Cooperative (PMCO) Funeral Home","address":"Polomolok Multi Purpose Cooperative (PMCO) Funeral Home, Cannery Road, Citizen Village, Polomolok, South Cotabato, Soccsksargen, 9504, Philippines","capacity":null,"hazardTypes":null}},{"type":"Feature","geometry":{"type":"Point","coordinates":[125.1142222,6.2666003]},"properties":{"id":"way/680201788","osmId":680201788,"facilityType":"multi_purpose","name":"Polo Samahang Nayon Multi Purpose Cooperative","address":"Polo Samahang Nayon Multi Purpose Cooperative, Polomolok-Malungon Road, Polo, Polomolok, South Cotabato, Soccsksargen, 9504, Philippines","capacity":null,"hazardTypes":null}},{"type":"Feature","geometry":{"type":"Point","coordinates":[125.1345818,6.3026805]},"properties":{"id":"way/170406313","osmId":170406313,"facilityType":"multi_purpose","name":"Maligo Multi Purpose Cooperative","address":"Maligo Multi Purpose Cooperative, Polomolok-Malungon Road, Center, Maligo, Polomolok, South Cotabato, Soccsksargen, Philippines","capacity":null,"hazardTypes":null}},{"type":"Feature","geometry":{"type":"Point","coordinates":[125.0650374,6.2156231]},"properties":{"id":"node/6497081267","osmId":6497081267,"facilityType":"multi_purpose","name":"Polomolok Multi Purpose Cooperative (PMCO) Funeral Home","address":"Polomolok Multi Purpose Cooperative (PMCO) Funeral Home, Cannery Road, Citizen Village, Polomolok, South Cotabato, Soccsksargen, 9504, Philippines","capacity":null,"hazardTypes":null}},{"type":"Feature","geometry":{"type":"Point","coordinates":[122.0767675,6.9097725]},"properties":{"id":"way/274848606","osmId":274848606,"facilityType":"multi_purpose","name":"Multi-Purpose Covered Court 1","address":"Multi-Purpose Covered Court 1, Gonzales Drive, Zone IV, Santa Catalina, Zamboanga City, Zamboanga Peninsula, 7000, Philippines","capacity":null,"hazardTypes":null}},{"type":"Feature","geometry":{"type":"Point","coordinates":[122.2055927,7.0752548]},"properties":{"id":"way/274712220","osmId":274712220,"facilityType":"multi_purpose","name":"Multi-Purpose Covered Court","address":"Multi-Purpose Covered Court, Maria Clara L. Lobregat Highway, Sangali, Zamboanga City, Zamboanga Peninsula, 7000, Philippines","capacity":null,"hazardTypes":null}},{"type":"Feature","geometry":{"type":"Point","coordinates":[122.0825753,6.9027296]},"properties":{"id":"way/347920739","osmId":347920739,"facilityType":"multi_purpose","name":"Multi-Purpose Hall","address":"Multi-Purpose Hall, Plaza del Pilar, Rio Hondo, Santa Catalina, Zamboanga City, Zamboanga Peninsula, 7000, Philippines","capacity":null,"hazardTypes":null}},{"type":"Feature","geometry":{"type":"Point","coordinates":[122.1190492,6.9478012]},"properties":{"id":"way/275493335","osmId":275493335,"facilityType":"multi_purpose","name":"Multi-Purpose Hall","address":"Multi-Purpose Hall, Maria Clara L. Lobregat Highway, Habitat Village, Boalan, Zamboanga City, Zamboanga Peninsula, 7000, Philippines","capacity":null,"hazardTypes":null}},{"type":"Feature","geometry":{"type":"Point","coordinates":[122.1456235,6.9718693]},"properties":{"id":"way/273734739","osmId":273734739,"facilityType":"multi_purpose","name":"Culianan Multi-Purpose Covered Court","address":"Culianan Multi-Purpose Covered Court, Maria Clara L. Lobregat Highway, Culianan, Zamboanga City, Zamboanga Peninsula, 7000, Philippines","capacity":null,"hazardTypes":null}},{"type":"Feature","geometry":{"type":"Point","coordinates":[122.1453472,6.9600175]},"properties":{"id":"way/347941305","osmId":347941305,"facilityType":"multi_purpose","name":"Multi-Purpose Covered Court","address":"Multi-Purpose Covered Court, San Isidro Drive, Mercedes, Zamboanga City, Zamboanga Peninsula, 7000, Philippines","capacity":null,"hazardTypes":null}},{"type":"Feature","geometry":{"type":"Point","coordinates":[122.0798579,6.9160298]},"properties":{"id":"node/2816973639","osmId":2816973639,"facilityType":"multi_purpose","name":"Micro Entrepreneurs' Multi-Purpose Cooperative","address":"Micro Entrepreneurs' Multi-Purpose Cooperative, Veterans Avenue, Zone III, Santa Catalina, Zamboanga City, Zamboanga Peninsula, 7000, Philippines","capacity":null,"hazardTypes":null}},{"type":"Feature","geometry":{"type":"Point","coordinates":[122.0791853,6.9157506]},"properties":{"id":"node/2815435772","osmId":2815435772,"facilityType":"multi_purpose","name":"Micro Entrepreneurs' Multi-Purpose Cooperative","address":"Micro Entrepreneurs' Multi-Purpose Cooperative, Veterans Avenue, Zone III, Santa Catalina, Zamboanga City, Zamboanga Peninsula, 7000, Philippines","capacity":null,"hazardTypes":null}},{"type":"Feature","geometry":{"type":"Point","coordinates":[122.0791493,6.9166306]},"properties":{"id":"node/2815420707","osmId":2815420707,"facilityType":"multi_purpose","name":"Aurora Integrated Multi-purpose Cooperative","address":"Aurora Integrated Multi-purpose Cooperative, Veterans Avenue, Zone III, Santa Catalina, Zamboanga City, Zamboanga Peninsula, 7000, Philippines","capacity":null,"hazardTypes":null}},{"type":"Feature","geometry":{"type":"Point","coordinates":[122.1202499,6.49978]},"properties":{"id":"way/758074280","osmId":758074280,"facilityType":"multi_purpose","name":"Tipo-Tipo Multi-Purpose Gym","address":"Tipo-Tipo Multi-Purpose Gym, Basilan Circumferential Road, Tipo-tipo Proper, Tipo-Tipo, Basilan, Bangsamoro, 7304, Philippines","capacity":null,"hazardTypes":null}},{"type":"Feature","geometry":{"type":"Point","coordinates":[122.1420533,6.4911602]},"properties":{"id":"way/927229596","osmId":927229596,"facilityType":"multi_purpose","name":"Al-Barka Multi-Purpose Gym","address":"Al-Barka Multi-Purpose Gym, Baguindan, Al-Barka, Basilan, Bangsamoro, 7304, Philippines","capacity":null,"hazardTypes":null}},{"type":"Feature","geometry":{"type":"Point","coordinates":[122.1327108,6.4719853]},"properties":{"id":"way/929759896","osmId":929759896,"facilityType":"multi_purpose","name":"Baguindan Barangay Multi-Purpose Gym","address":"Baguindan Barangay Multi-Purpose Gym, Baguindan, Tipo-Tipo, Basilan, Bangsamoro, 7308, Philippines","capacity":null,"hazardTypes":null}},{"type":"Feature","geometry":{"type":"Point","coordinates":[124.6872062,6.527773]},"properties":{"id":"way/684284007","osmId":684284007,"facilityType":"multi_purpose","name":"MULTI-PURPOSE HALL","address":"MULTI-PURPOSE HALL, Pescuela Road, Quirino, Benigno Aquino Jr., South Cotabato, Soccsksargen, 9508, Philippines","capacity":null,"hazardTypes":null}},{"type":"Feature","geometry":{"type":"Point","coordinates":[124.5355617,7.191343]},"properties":{"id":"node/4365902590","osmId":4365902590,"facilityType":"multi_purpose","name":"Makilala Multi-purpose Cooperative","address":"Makilala Multi-purpose Cooperative, Santo Niño Street, Poblacion 3, Midsayap, North Cotabato, Soccsksargen, 9410, Philippines","capacity":null,"hazardTypes":null}},{"type":"Feature","geometry":{"type":"Point","coordinates":[125.4536865,7.1927316]},"properties":{"id":"node/1242789630","osmId":1242789630,"facilityType":"multi_purpose","name":"Silangan Multi Purpose Cooperative","address":"Silangan Multi Purpose Cooperative, Davao-Bukidnon Road, Purok 9, Lower Lacson, Calinan District, Davao City, Davao Region, 8018, Philippines","capacity":null,"hazardTypes":null}},{"type":"Feature","geometry":{"type":"Point","coordinates":[125.3480729,6.7531596]},"properties":{"id":"way/1287579692","osmId":1287579692,"facilityType":"multi_purpose","name":"Multi-Purpose Covered Court","address":"Multi-Purpose Covered Court, Delos Santos Street, PNP Village, Zone 1, Digos, Davao del Sur, Davao Region, 8002, Philippines","capacity":null,"hazardTypes":null}},{"type":"Feature","geometry":{"type":"Point","coordinates":[125.090021,7.0219521]},"properties":{"id":"node/11013836844","osmId":11013836844,"facilityType":"multi_purpose","name":"Santa Catalina Multi-Purpose Cooperative","address":"Santa Catalina Multi-Purpose Cooperative, M. L. Quezon Boulevard, Tomato, Sudapin, Kidapawan, North Cotabato, Soccsksargen, 9400, Philippines","capacity":null,"hazardTypes":null}},{"type":"Feature","geometry":{"type":"Point","coordinates":[125.2842782,6.7334115]},"properties":{"id":"way/167602559","osmId":167602559,"facilityType":"multi_purpose","name":"Grade 6 & Multi-Purpose Building","address":"Grade 6 & Multi-Purpose Building, Sinaragan-Kibuaya Road, Purok 1, Kibuaya, Hagonoy, Davao del Sur, Davao Region, 8006, Philippines","capacity":null,"hazardTypes":null}},{"type":"Feature","geometry":{"type":"Point","coordinates":[125.4741969,6.5512486]},"properties":{"id":"way/648343048","osmId":648343048,"facilityType":"multi_purpose","name":"Multi-Purpose Building","address":"Multi-Purpose Building, Davao-Sarangani Coastal Road, Poblacion, Santa Maria, Davao Occidental, Davao Region, 8011, Philippines","capacity":null,"hazardTypes":null}},{"type":"Feature","geometry":{"type":"Point","coordinates":[125.6246694,7.1134455]},"properties":{"id":"way/428385580","osmId":428385580,"facilityType":"multi_purpose","name":"NHA Buhangin Multi-Purpose Building","address":"NHA Buhangin Multi-Purpose Building, NHA Buhangin Gym Street, NHA, Buhangin, Buhangin District, Davao City, Davao Region, 8000, Philippines","capacity":null,"hazardTypes":null}},{"type":"Feature","geometry":{"type":"Point","coordinates":[125.502704,7.0929019]},"properties":{"id":"way/507250787","osmId":507250787,"facilityType":"multi_purpose","name":"Mintal Elderly Association Multi-purpose Center","address":"Mintal Elderly Association Multi-purpose Center, Doña Aurora Street, Purok 10, Santo Niño, Tugbok District, Davao City, Davao Region, 8000, Philippines","capacity":null,"hazardTypes":null}},{"type":"Feature","geometry":{"type":"Point","coordinates":[125.5453506,7.0777145]},"properties":{"id":"way/1027235916","osmId":1027235916,"facilityType":"multi_purpose","name":"El Grande Multi-Purpose Cooperative","address":"El Grande Multi-Purpose Cooperative, Kasipagan Village, Catalunan Grande, Talomo District, Davao City, Davao Region, 8000, Philippines","capacity":null,"hazardTypes":null}},{"type":"Feature","geometry":{"type":"Point","coordinates":[125.6261004,7.0718785]},"properties":{"id":"way/587356633","osmId":587356633,"facilityType":"multi_purpose","name":"Multi-purpose Building","address":"Multi-purpose Building, Davao City Coastal Road, Isla Verde, 23-C Darussalam, Poblacion District, Davao City, Davao Region, 8000, Philippines","capacity":null,"hazardTypes":null}},{"type":"Feature","geometry":{"type":"Point","coordinates":[125.6210338,7.0699918]},"properties":{"id":"way/594586510","osmId":594586510,"facilityType":"multi_purpose","name":"Multi-purpose Building","address":"Multi-purpose Building, M. L. Quezon Boulevard, Piapi, Barangay 22-C, Poblacion District, Davao City, Davao Region, 8000, Philippines","capacity":null,"hazardTypes":null}},{"type":"Feature","geometry":{"type":"Point","coordinates":[125.6358603,7.1294467]},"properties":{"id":"way/140235373","osmId":140235373,"facilityType":"multi_purpose","name":"Police Regional Office 11 Multi Purpose Cooperative","address":"Police Regional Office 11 Multi Purpose Cooperative, General G. Del Pilar Street, Mutual Homes, Communal, Buhangin District, Davao City, Davao Region, 8000, Philippines","capacity":null,"hazardTypes":null}},{"type":"Feature","geometry":{"type":"Point","coordinates":[125.6166717,7.0794948]},"properties":{"id":"way/1270789399","osmId":1270789399,"facilityType":"multi_purpose","name":"Barangay Multi-Purpose Building","address":"Barangay Multi-Purpose Building, P. Sobrecarey Street, Barangay 14-B, Poblacion District, Davao City, Davao Region, 8000, Philippines","capacity":null,"hazardTypes":null}},{"type":"Feature","geometry":{"type":"Point","coordinates":[125.6153775,7.0660123]},"properties":{"id":"node/11885807133","osmId":11885807133,"facilityType":"multi_purpose","name":"Barangay 36-D Multi-purpose Building","address":"Barangay 36-D Multi-purpose Building, A. Bonifacio Street, Barangay 36-D, Poblacion District, Davao City, Davao Region, 8000, Philippines","capacity":null,"hazardTypes":null}},{"type":"Feature","geometry":{"type":"Point","coordinates":[125.6092302,7.0791807]},"properties":{"id":"node/12414905611","osmId":12414905611,"facilityType":"multi_purpose","name":"PIADI Multi-purpose Cooperative","address":"PIADI Multi-purpose Cooperative, M. Araullo Extension, Barangay 11-B, Poblacion District, Davao City, Davao Region, 8000, Philippines","capacity":null,"hazardTypes":null}},{"type":"Feature","geometry":{"type":"Point","coordinates":[125.5927752,7.0615415]},"properties":{"id":"node/3727505807","osmId":3727505807,"facilityType":"multi_purpose","name":"Panabo Multi-Purpose Cooperative","address":"Panabo Multi-Purpose Cooperative, MacArthur Highway, Matina, 74-A Matina Crossing, Talomo District, Davao City, Davao Region, 8000, Philippines","capacity":null,"hazardTypes":null}},{"type":"Feature","geometry":{"type":"Point","coordinates":[125.6016801,7.0707457]},"properties":{"id":"node/11952186020","osmId":11952186020,"facilityType":"multi_purpose","name":"Silangan Multi-Purpose Cooperative","address":"Silangan Multi-Purpose Cooperative, San Pedro Extension, Purok 1, 6-A Saint Jude, Poblacion District, Davao City, Davao Region, 8000, Philippines","capacity":null,"hazardTypes":null}},{"type":"Feature","geometry":{"type":"Point","coordinates":[125.6915753,7.1351992]},"properties":{"id":"way/485475448","osmId":485475448,"facilityType":"multi_purpose","name":"Babak Multi-Purpose Gym","address":"Babak Multi-Purpose Gym, Babak-Samal-Kaputian Road, Babak, Miranda, Babak District, Samal, Davao del Norte, Davao Region, 8119, Philippines","capacity":null,"hazardTypes":null}},{"type":"Feature","geometry":{"type":"Point","coordinates":[125.8942625,7.1321332]},"properties":{"id":"way/1301750360","osmId":1301750360,"facilityType":"multi_purpose","name":"PCCC Multi Purpose Cooperative","address":"PCCC Multi Purpose Cooperative, Surigao-Davao Coastal Road, Townsite, Kingking, Pantukan, Davao de Oro, Davao Region, 8809, Philippines","capacity":null,"hazardTypes":null}},{"type":"Feature","geometry":{"type":"Point","coordinates":[125.9207263,7.101533]},"properties":{"id":"way/1301973890","osmId":1301973890,"facilityType":"multi_purpose","name":"DSWD Multi-Purpose Building","address":"DSWD Multi-Purpose Building, Surigao-Davao Coastal Road, Narra, Canipa, Tambongon, Davao de Oro, Davao Region, 8809, Philippines","capacity":null,"hazardTypes":null}},{"type":"Feature","geometry":{"type":"Point","coordinates":[125.6157456,7.1092404]},"properties":{"id":"way/140128777","osmId":140128777,"facilityType":"multi_purpose","name":"Buhangin Multipurpose Gym","address":"Buhangin Multipurpose Gym, Carlos P. Garcia Highway, Sandawa Village Phase 2, Santa Teresita, Buhangin, Buhangin District, Davao City, Davao Region, 8000, Philippines","capacity":null,"hazardTypes":null}},{"type":"Feature","geometry":{"type":"Point","coordinates":[123.4140727,7.8107466]},"properties":{"id":"node/4361086289","osmId":4361086289,"facilityType":"multi_purpose","name":"Napolan Multi-Purpose Cooperative","address":"Napolan Multi-Purpose Cooperative, Centro, Pagadian, Zamboanga del Sur, Zamboanga Peninsula, 7060, Philippines","capacity":null,"hazardTypes":null}},{"type":"Feature","geometry":{"type":"Point","coordinates":[123.4442248,7.8279141]},"properties":{"id":"node/4356841095","osmId":4356841095,"facilityType":"multi_purpose","name":"Midsalip Farmers Multi-Purpose Cooperative","address":"Midsalip Farmers Multi-Purpose Cooperative, J. P. Rizal Avenue, Papaya, Pagadian, Zamboanga del Sur, Zamboanga Peninsula, 7016, Philippines","capacity":null,"hazardTypes":null}},{"type":"Feature","geometry":{"type":"Point","coordinates":[123.7283784,7.9292009]},"properties":{"id":"node/6377348833","osmId":6377348833,"facilityType":"multi_purpose","name":"Barangay El Salvador Multi- Purpose Cooperative","address":"Barangay El Salvador Multi- Purpose Cooperative, Linamon-Zamboanga Road, Purok 2, Donggo-an, Lanao del Norte, Northern Mindanao, 9211, Philippines","capacity":null,"hazardTypes":null}},{"type":"Feature","geometry":{"type":"Point","coordinates":[123.77187,7.92401]},"properties":{"id":"node/6377418743","osmId":6377418743,"facilityType":"multi_purpose","name":"Lorenzo Tan Multi Purpose Cooperative","address":"Lorenzo Tan Multi Purpose Cooperative, Linamon-Zamboanga Road, Apitong, Maranding, Lanao del Norte, Northern Mindanao, 9211, Philippines","capacity":null,"hazardTypes":null}},{"type":"Feature","geometry":{"type":"Point","coordinates":[124.2309985,7.9476538]},"properties":{"id":"node/10315909818","osmId":10315909818,"facilityType":"multi_purpose","name":"Cawayan Linuk Multi Purpose Hall","address":"Cawayan Linuk Multi Purpose Hall, Narciso Ramos Highway, Marawi City, Lanao del Sur, Bangsamoro, Philippines","capacity":null,"hazardTypes":null}},{"type":"Feature","geometry":{"type":"Point","coordinates":[125.0743493,7.8022222]},"properties":{"id":"way/1321473344","osmId":1321473344,"facilityType":"multi_purpose","name":"Busco Academy Multi-Purpose Cooperative","address":"Busco Academy Multi-Purpose Cooperative, Dologon-Quezon Road, Quemtras, Butong, Quezon, Bukidnon, Northern Mindanao, 8715, Philippines","capacity":null,"hazardTypes":null}},{"type":"Feature","geometry":{"type":"Point","coordinates":[125.3267341,7.9044815]},"properties":{"id":"way/375885392","osmId":375885392,"facilityType":"multi_purpose","name":"Multi-Purpose Solar Drier","address":"Multi-Purpose Solar Drier, Kapalong-Talaingod-Valencia Road, Purok 3, Lawatano, San Fernando, Bukidnon, Northern Mindanao, 8711, Philippines","capacity":null,"hazardTypes":null}},{"type":"Feature","geometry":{"type":"Point","coordinates":[125.3541082,7.9071384]},"properties":{"id":"way/376477425","osmId":376477425,"facilityType":"multi_purpose","name":"Multi-Purpose Hall","address":"Multi-Purpose Hall, Candelaria Hanging Bridge, Candelaria, San Fernando, Bukidnon, Northern Mindanao, Philippines","capacity":null,"hazardTypes":null}},{"type":"Feature","geometry":{"type":"Point","coordinates":[125.3556511,7.9353255]},"properties":{"id":"way/1271850975","osmId":1271850975,"facilityType":"multi_purpose","name":"Nala Multi-Purpose Building","address":"Nala Multi-Purpose Building, Cabanglasan-San Fernando Road, Purok 3, Mahayag, Nacabuklad, San Fernando, Bukidnon, Northern Mindanao, 8711, Philippines","capacity":null,"hazardTypes":null}},{"type":"Feature","geometry":{"type":"Point","coordinates":[125.301904,7.924908]},"properties":{"id":"way/397408202","osmId":397408202,"facilityType":"multi_purpose","name":"Multi-purpose Hall","address":"Multi-purpose Hall, Road to HNHS Annex, Tagalas-as, Little Baguio, San Fernando, Bukidnon, Northern Mindanao, Philippines","capacity":null,"hazardTypes":null}},{"type":"Feature","geometry":{"type":"Point","coordinates":[125.3945925,7.7976503]},"properties":{"id":"way/1124316060","osmId":1124316060,"facilityType":"multi_purpose","name":"Bonacao Multi-Purpose Building","address":"Bonacao Multi-Purpose Building, Kapalong-Talaingod-Valencia Road, Bonacao, San Fernando, Bukidnon, Northern Mindanao, Philippines","capacity":null,"hazardTypes":null}},{"type":"Feature","geometry":{"type":"Point","coordinates":[125.3835799,7.8331735]},"properties":{"id":"way/590940618","osmId":590940618,"facilityType":"multi_purpose","name":"Namnam Multi Purpose Hall","address":"Namnam Multi Purpose Hall, Kapalong-Talaingod-Valencia Road, Kalubog, Namnam, San Fernando, Bukidnon, Northern Mindanao, 8711, Philippines","capacity":null,"hazardTypes":null}},{"type":"Feature","geometry":{"type":"Point","coordinates":[125.0491848,7.8586027]},"properties":{"id":"node/3881306891","osmId":3881306891,"facilityType":"multi_purpose","name":"PE Multi purpose court","address":"PE Multi purpose court, Sayre Highway, Purok 3, Tubigon, Maramag, Bukidnon, Northern Mindanao, 8714, Philippines","capacity":null,"hazardTypes":null}},{"type":"Feature","geometry":{"type":"Point","coordinates":[125.1011508,7.9471751]},"properties":{"id":"node/5211224124","osmId":5211224124,"facilityType":"multi_purpose","name":"Diversified Multi Purpose Coop","address":"Diversified Multi Purpose Coop, Valencia-Lantapan Road, San Carlos, Valencia, Bukidnon, Northern Mindanao, 8709, Philippines","capacity":null,"hazardTypes":null}},{"type":"Feature","geometry":{"type":"Point","coordinates":[125.1259861,7.350962]},"properties":{"id":"node/6776097507","osmId":6776097507,"facilityType":"multi_purpose","name":"Household Multi-Purpose Cooperative","address":"Household Multi-Purpose Cooperative, Puntian-Arakan Road, Greenfield, Arakan, North Cotabato, Soccsksargen, 9417, Philippines","capacity":null,"hazardTypes":null}},{"type":"Feature","geometry":{"type":"Point","coordinates":[125.0444421,7.2179471]},"properties":{"id":"node/6874166008","osmId":6874166008,"facilityType":"multi_purpose","name":"Household Multi-Purpose Cooperative","address":"Household Multi-Purpose Cooperative, J. Dagdag Street, Pagkakaisa, Balite, Luhong, Antipas, North Cotabato, Soccsksargen, 9414, Philippines","capacity":null,"hazardTypes":null}},{"type":"Feature","geometry":{"type":"Point","coordinates":[125.9874478,7.9835339]},"properties":{"id":"way/443538952","osmId":443538952,"facilityType":"multi_purpose","name":"Multi-purpose","address":"Multi-purpose, Peranco Street, Purok 4, Sayon, Santa Josefa, Agusan del Sur, Caraga, 8512, Philippines","capacity":null,"hazardTypes":null}},{"type":"Feature","geometry":{"type":"Point","coordinates":[126.4799061,7.3333804]},"properties":{"id":"way/587359011","osmId":587359011,"facilityType":"multi_purpose","name":"Barangay Multi Purpose Building","address":"Barangay Multi Purpose Building, Caraga-Maragusan Road, Magsayap, P. M. Sobrecarey, Caraga, Davao Oriental, Davao Region, 8203, Philippines","capacity":null,"hazardTypes":null}},{"type":"Feature","geometry":{"type":"Point","coordinates":[126.0269866,7.9564069]},"properties":{"id":"node/4034378735","osmId":4034378735,"facilityType":"multi_purpose","name":"Multi Purpose Building","address":"Multi Purpose Building, Poblacion-Angas Road, Lower Angas, Baclise, Angas, Santa Josefa, Agusan del Sur, Caraga, 8512, Philippines","capacity":null,"hazardTypes":null}},{"type":"Feature","geometry":{"type":"Point","coordinates":[117.4692916,8.5973049]},"properties":{"id":"node/6804353685","osmId":6804353685,"facilityType":"multi_purpose","name":"GOTOK KOLANTUD HIGHLANDERS MULTI PURPOSE COOP","address":"GOTOK KOLANTUD HIGHLANDERS MULTI PURPOSE COOP, Puerto Princesa South Road, Gotok, Sandoval, Palawan, Mimaropa, Philippines","capacity":null,"hazardTypes":null}},{"type":"Feature","geometry":{"type":"Point","coordinates":[123.3491571,8.4807178]},"properties":{"id":"way/971068648","osmId":971068648,"facilityType":"multi_purpose","name":"Sangkol Multi-Purpose Hall","address":"Sangkol Multi-Purpose Hall, Molave-Dipolog Road, Cogon, Zamboanga del Norte, Zamboanga Peninsula, 7100, Philippines","capacity":null,"hazardTypes":null}},{"type":"Feature","geometry":{"type":"Point","coordinates":[123.8311876,8.0210821]},"properties":{"id":"node/4134689997","osmId":4134689997,"facilityType":"multi_purpose","name":"Multi Purpose Building","address":"Multi Purpose Building, Lanao del Norte Interior Circumferential Road, Tubaran, Lanao del Norte, Northern Mindanao, 9209, Philippines","capacity":null,"hazardTypes":null}},{"type":"Feature","geometry":{"type":"Point","coordinates":[123.7527295,8.059323]},"properties":{"id":"node/7187019686","osmId":7187019686,"facilityType":"multi_purpose","name":"Tangub Multi-Purpose Hall","address":"Tangub Multi-Purpose Hall, 2nd South Street, Migcanaway, San Apolinario, Tangub, Misamis Occidental, Northern Mindanao, 7214, Philippines","capacity":null,"hazardTypes":null}},{"type":"Feature","geometry":{"type":"Point","coordinates":[123.8470018,8.1407984]},"properties":{"id":"node/11184853237","osmId":11184853237,"facilityType":"multi_purpose","name":"Barangay Baybay Triunfo Multi-Purpose Hall","address":"Barangay Baybay Triunfo Multi-Purpose Hall, Cotta Road, Baybay Triunfo, Ozamiz, Misamis Occidental, Northern Mindanao, 7200, Philippines","capacity":null,"hazardTypes":null}},{"type":"Feature","geometry":{"type":"Point","coordinates":[123.7204334,8.6115586]},"properties":{"id":"node/4356678089","osmId":4356678089,"facilityType":"multi_purpose","name":"Paglaum Multi Purpose Cooperative - Head Office","address":"Paglaum Multi Purpose Cooperative - Head Office, 2F PMPC Bldg, Oroquieta-Dipolog Road, Northern Poblacion, Eastern Looc, Misamis Occidental, Northern Mindanao, 7209, Philippines","capacity":null,"hazardTypes":null}},{"type":"Feature","geometry":{"type":"Point","coordinates":[123.8072548,8.4827341]},"properties":{"id":"node/4427055391","osmId":4427055391,"facilityType":"multi_purpose","name":"Paglaum Multi Purpose Cooperative","address":"Paglaum Multi Purpose Cooperative, J. P. Quijano Street, Poblacion II, Oroquieta, Misamis Occidental, Northern Mindanao, 7207, Philippines","capacity":null,"hazardTypes":null}},{"type":"Feature","geometry":{"type":"Point","coordinates":[124.2440521,8.239947]},"properties":{"id":"relation/17253091","osmId":17253091,"facilityType":"multi_purpose","name":"IDS Multi-Purpose Hall","address":"IDS Multi-Purpose Hall, Andres Bonifacio Avenue, Sampaguita, Iligan, Northern Mindanao, 9200, Philippines","capacity":null,"hazardTypes":null}},{"type":"Feature","geometry":{"type":"Point","coordinates":[124.4097428,8.236433]},"properties":{"id":"node/6501681030","osmId":6501681030,"facilityType":"multi_purpose","name":"Badelles Multi-Purpose Hall","address":"Badelles Multi-Purpose Hall, Rogongon-Panoroganan Road, Scaling, Recodo, Rogongon, Iligan, Northern Mindanao, Philippines","capacity":null,"hazardTypes":null}},{"type":"Feature","geometry":{"type":"Point","coordinates":[124.2437026,8.2280058]},"properties":{"id":"node/6748995385","osmId":6748995385,"facilityType":"multi_purpose","name":"MSU-IIT National Multi-Purpose Cooperative","address":"MSU-IIT National Multi-Purpose Cooperative, Gregorio T. Lluch Sr. Avenue, Noria, Iligan, Northern Mindanao, 9200, Philippines","capacity":null,"hazardTypes":null}},{"type":"Feature","geometry":{"type":"Point","coordinates":[123.9790825,8.0244657]},"properties":{"id":"way/871555112","osmId":871555112,"facilityType":"multi_purpose","name":"Tangcal Proper Multi-Purpose Building","address":"Tangcal Proper Multi-Purpose Building, Lanao del Norte Interior Circumferential Road, Balabacun, Lanao del Norte, Northern Mindanao, 9220, Philippines","capacity":null,"hazardTypes":null}},{"type":"Feature","geometry":{"type":"Point","coordinates":[124.085056,8.1918135]},"properties":{"id":"node/4130733392","osmId":4130733392,"facilityType":"multi_purpose","name":"Poblacion Multi-Purpose Hall","address":"Poblacion Multi-Purpose Hall, Linamon-Zamboanga Road, Poblacion, Kauswagan, Lanao del Norte, Northern Mindanao, 9202, Philippines","capacity":null,"hazardTypes":null}},{"type":"Feature","geometry":{"type":"Point","coordinates":[124.6474504,8.466266]},"properties":{"id":"way/503700613","osmId":503700613,"facilityType":"multi_purpose","name":"Multi-Purpose Building","address":"Multi-Purpose Building, 26th Street, Tibasak, Nazareth, Cagayan de Oro, Northern Mindanao, 9000, Philippines","capacity":null,"hazardTypes":null}},{"type":"Feature","geometry":{"type":"Point","coordinates":[124.754604,8.5094307]},"properties":{"id":"node/9688988949","osmId":9688988949,"facilityType":"multi_purpose","name":"Allied Services Multi-Purpose Cooperative","address":"Allied Services Multi-Purpose Cooperative, C. M. Recto Avenue, Tin-ao, Bugo, Cagayan de Oro, Northern Mindanao, 9000, Philippines","capacity":null,"hazardTypes":null}},{"type":"Feature","geometry":{"type":"Point","coordinates":[124.6294347,8.4877119]},"properties":{"id":"node/4198784947","osmId":4198784947,"facilityType":"multi_purpose","name":"ACDI Multi Purpose Cooperative","address":"ACDI Multi Purpose Cooperative, Mother of Perpetual Help Avenue, Apovel, Bulua, Cagayan de Oro, Northern Mindanao, 9000, Philippines","capacity":null,"hazardTypes":null}},{"type":"Feature","geometry":{"type":"Point","coordinates":[124.9021985,8.3754881]},"properties":{"id":"way/288876035","osmId":288876035,"facilityType":"multi_purpose","name":"Barangay Multi-purpose Gym","address":"Barangay Multi-purpose Gym, Sayre Highway, Angeles, Dalirig, Manolo Fortich, Bukidnon, Northern Mindanao, 8703, Philippines","capacity":null,"hazardTypes":null}},{"type":"Feature","geometry":{"type":"Point","coordinates":[124.5261005,8.5573898]},"properties":{"id":"way/559665397","osmId":559665397,"facilityType":"multi_purpose","name":"POBLACION MULTI-PURPOSE BUILDING","address":"POBLACION MULTI-PURPOSE BUILDING, Feliciano O. Ayudtud Street, El Salvador, Misamis Oriental, Northern Mindanao, 9018, Philippines","capacity":null,"hazardTypes":null}},{"type":"Feature","geometry":{"type":"Point","coordinates":[125.1221915,8.1592656]},"properties":{"id":"way/188280056","osmId":188280056,"facilityType":"multi_purpose","name":"Covered Multi-purpose Court","address":"Covered Multi-purpose Court, Fortich Street, Imperial, Sumpong, Malaybalay, Bukidnon, Northern Mindanao, 8700, Philippines","capacity":null,"hazardTypes":null}},{"type":"Feature","geometry":{"type":"Point","coordinates":[125.9696473,8.3682779]},"properties":{"id":"way/399155175","osmId":399155175,"facilityType":"multi_purpose","name":"tagbayagan multi purpose hall","address":"tagbayagan multi purpose hall, Davao-Agusan National Highway, Poblacion, Rosario, Agusan del Sur, Caraga, 8504, Philippines","capacity":null,"hazardTypes":null}},{"type":"Feature","geometry":{"type":"Point","coordinates":[125.9939715,8.0218264]},"properties":{"id":"way/449308136","osmId":449308136,"facilityType":"multi_purpose","name":"Tapaz Multi Purpose Hall","address":"Tapaz Multi Purpose Hall, Santa Isabel-Tapaz Road, Purok 1, Tapaz, Santa Josefa, Agusan del Sur, Caraga, 8512, Philippines","capacity":null,"hazardTypes":null}},{"type":"Feature","geometry":{"type":"Point","coordinates":[125.975288,8.5125309]},"properties":{"id":"node/4064652130","osmId":4064652130,"facilityType":"multi_purpose","name":"Barangay 1 Multi-purpose Hall","address":"Barangay 1 Multi-purpose Hall, Obedoza Street, Barangay 1, Poblacion, Hubang, San Francisco, Agusan del Sur, Caraga, 8501, Philippines","capacity":null,"hazardTypes":null}},{"type":"Feature","geometry":{"type":"Point","coordinates":[125.9786417,8.5086536]},"properties":{"id":"node/4020829548","osmId":4020829548,"facilityType":"multi_purpose","name":"Aglow Multi-purpose Cooperative","address":"Aglow Multi-purpose Cooperative, Obedoza Street, Purok 4, Poblacion, Hubang, San Francisco, Agusan del Sur, Caraga, 8501, Philippines","capacity":null,"hazardTypes":null}},{"type":"Feature","geometry":{"type":"Point","coordinates":[125.9785639,8.5060759]},"properties":{"id":"node/4020784532","osmId":4020784532,"facilityType":"multi_purpose","name":"PERA Multi Purpose Cooperative","address":"PERA Multi Purpose Cooperative, Obedoza Street, Barangay 4, Poblacion, San Francisco, Agusan del Sur, Caraga, 8501, Philippines","capacity":null,"hazardTypes":null}},{"type":"Feature","geometry":{"type":"Point","coordinates":[126.0340229,8.0084002]},"properties":{"id":"node/4034674657","osmId":4034674657,"facilityType":"multi_purpose","name":"Santa Isabel Multi-purpose Hall","address":"Santa Isabel Multi-purpose Hall, Santa Isabel Road, Purok 3, Santa Isabel, Santa Josefa, Agusan del Sur, Caraga, 8512, Philippines","capacity":null,"hazardTypes":null}},{"type":"Feature","geometry":{"type":"Point","coordinates":[118.4423172,9.4091172]},"properties":{"id":"way/985781351","osmId":985781351,"facilityType":"multi_purpose","name":"Dumangueña Multi-purpose Hall","address":"Dumangueña Multi-purpose Hall, Dumagueña, Palawan, Mimaropa, Philippines","capacity":null,"hazardTypes":null}},{"type":"Feature","geometry":{"type":"Point","coordinates":[123.2510084,9.3054555]},"properties":{"id":"way/1159290612","osmId":1159290612,"facilityType":"multi_purpose","name":"Uypitching Multi-Purpose Hall","address":"Uypitching Multi-Purpose Hall, Legarda Street, Balugo, Valencia, Negros Oriental, Negros Island Region, 6215, Philippines","capacity":null,"hazardTypes":null}},{"type":"Feature","geometry":{"type":"Point","coordinates":[123.2508592,9.2821207]},"properties":{"id":"way/781179325","osmId":781179325,"facilityType":"multi_purpose","name":"Bong-ao Multi-Purpose Hall","address":"Bong-ao Multi-Purpose Hall, Bong-ao - Cantil-e Road, Bong-ao, Valencia, Negros Oriental, Negros Island Region, 6215, Philippines","capacity":null,"hazardTypes":null}},{"type":"Feature","geometry":{"type":"Point","coordinates":[123.3063725,9.5287657]},"properties":{"id":"way/600514434","osmId":600514434,"facilityType":"multi_purpose","name":"Imeldo G. Gamallo, Sr. Multi-purpose Building","address":"Imeldo G. Gamallo, Sr. Multi-purpose Building, Samboan-Barili Road, Poblacion, Suba, Samboan, Cebu, Central Visayas, 6027, Philippines","capacity":null,"hazardTypes":null}},{"type":"Feature","geometry":{"type":"Point","coordinates":[123.2822621,9.3334374]},"properties":{"id":"way/847012023","osmId":847012023,"facilityType":"multi_purpose","name":"Judyville Multi-purpose Hall","address":"Judyville Multi-purpose Hall, Saint Vincent Street, Bolocboloc, Sibulan, Negros Oriental, Negros Island Region, 6201, Philippines","capacity":null,"hazardTypes":null}},{"type":"Feature","geometry":{"type":"Point","coordinates":[123.2649604,9.1895084]},"properties":{"id":"way/1358516004","osmId":1358516004,"facilityType":"multi_purpose","name":"Devine Mercy Multi-purpose Center","address":"Devine Mercy Multi-purpose Center, Independencia Street, Poblacion District II, Dauin, Negros Oriental, Negros Island Region, 6217, Philippines","capacity":null,"hazardTypes":null}},{"type":"Feature","geometry":{"type":"Point","coordinates":[123.6605474,9.2371076]},"properties":{"id":"node/8076755184","osmId":8076755184,"facilityType":"multi_purpose","name":"Lotloton Multi Purpose Building","address":"Lotloton Multi Purpose Building, Siquijor Circumferential Road, Poblacion Sur, Lotloton, Calunasan, Enrique Villanueva, Siquijor, Negros Island Region, 6229, Philippines","capacity":null,"hazardTypes":null}},{"type":"Feature","geometry":{"type":"Point","coordinates":[123.6472093,9.2760827]},"properties":{"id":"node/8064692254","osmId":8064692254,"facilityType":"multi_purpose","name":"Enrique Villanueva Multi Purpose Hall","address":"Enrique Villanueva Multi Purpose Hall, Siquijor Circumferential Road, Poblacion, Enrique Villanueva, Siquijor, Negros Island Region, 6230, Philippines","capacity":null,"hazardTypes":null}},{"type":"Feature","geometry":{"type":"Point","coordinates":[123.629678,9.2719582]},"properties":{"id":"node/8079599986","osmId":8079599986,"facilityType":"multi_purpose","name":"Manan-ao Multi Purpose Hall","address":"Manan-ao Multi Purpose Hall, Siquijor Circumferential Road, Lomangcapan, Enrique Villanueva, Siquijor, Negros Island Region, 6230, Philippines","capacity":null,"hazardTypes":null}},{"type":"Feature","geometry":{"type":"Point","coordinates":[123.6468158,9.2765221]},"properties":{"id":"node/8064692252","osmId":8064692252,"facilityType":"multi_purpose","name":"Enrique Villanueva Multi Purpose Building","address":"Enrique Villanueva Multi Purpose Building, Siquijor Circumferential Road, Poblacion, Enrique Villanueva, Siquijor, Negros Island Region, 6230, Philippines","capacity":null,"hazardTypes":null}},{"type":"Feature","geometry":{"type":"Point","coordinates":[123.6441148,9.2770752]},"properties":{"id":"node/8076353729","osmId":8076353729,"facilityType":"multi_purpose","name":"Poblacion Multi Purpose Hall","address":"Poblacion Multi Purpose Hall, Siquijor Circumferential Road, Poblacion, Enrique Villanueva, Siquijor, Negros Island Region, 6230, Philippines","capacity":null,"hazardTypes":null}},{"type":"Feature","geometry":{"type":"Point","coordinates":[123.6278813,9.2912769]},"properties":{"id":"node/8064692242","osmId":8064692242,"facilityType":"multi_purpose","name":"Lomangcapan Multi Purpose Hall","address":"Lomangcapan Multi Purpose Hall, Siquijor Circumferential Road, Lomangcapan, Enrique Villanueva, Siquijor, Negros Island Region, 6230, Philippines","capacity":null,"hazardTypes":null}},{"type":"Feature","geometry":{"type":"Point","coordinates":[124.16083,9.6043778]},"properties":{"id":"way/510739178","osmId":510739178,"facilityType":"multi_purpose","name":"Dimiao Cultural & Multi-purpose Center","address":"Dimiao Cultural & Multi-purpose Center, Tagbilaran East Road, Luyo, Dimiao, Bohol, Central Visayas, 6305, Philippines","capacity":null,"hazardTypes":null}},{"type":"Feature","geometry":{"type":"Point","coordinates":[124.6348388,9.203293]},"properties":{"id":"way/1290439778","osmId":1290439778,"facilityType":"multi_purpose","name":"Multi-purpose Building","address":"Multi-purpose Building, Purok 6, Bonbon, Catarman, Camiguin, Northern Mindanao, 9104, Philippines","capacity":null,"hazardTypes":null}},{"type":"Feature","geometry":{"type":"Point","coordinates":[124.6578012,9.159135]},"properties":{"id":"node/5630475922","osmId":5630475922,"facilityType":"multi_purpose","name":"Mainit Multi-purpose Building","address":"Mainit Multi-purpose Building, Compol - Mainit Road, Mainit, Catarman, Camiguin, Northern Mindanao, 9104, Philippines","capacity":null,"hazardTypes":null}},{"type":"Feature","geometry":{"type":"Point","coordinates":[125.6027271,8.9600855]},"properties":{"id":"way/318830793","osmId":318830793,"facilityType":"multi_purpose","name":"Ampayon Multi-purpose Cooperative (AMPC)","address":"Ampayon Multi-purpose Cooperative (AMPC), Davao-Agusan National Highway, Ampayon, Butuan, Caraga, Philippines","capacity":null,"hazardTypes":null}},{"type":"Feature","geometry":{"type":"Point","coordinates":[125.5178298,9.0270047]},"properties":{"id":"way/437544764","osmId":437544764,"facilityType":"multi_purpose","name":"Marcos Multi-Purpose Hall","address":"Marcos Multi-Purpose Hall, H. Dultra Street, Magallanes, Agusan del Norte, Caraga, 8604, Philippines","capacity":null,"hazardTypes":null}},{"type":"Feature","geometry":{"type":"Point","coordinates":[125.517398,9.0214395]},"properties":{"id":"node/9464734021","osmId":9464734021,"facilityType":"multi_purpose","name":"Serviam Multi-purpose Cooperative","address":"Serviam Multi-purpose Cooperative, Pandanon-Magallanes Road, Magallanes, Agusan del Norte, Caraga, 8604, Philippines","capacity":null,"hazardTypes":null}},{"type":"Feature","geometry":{"type":"Point","coordinates":[125.5801599,9.4970091]},"properties":{"id":"way/505041363","osmId":505041363,"facilityType":"multi_purpose","name":"Alipao Multi-Purpose Covered Court","address":"Alipao Multi-Purpose Covered Court, Surigao-Butuan National Highway, Alipao, San Juan, Alegria, Surigao del Norte, Caraga, 8425, Philippines","capacity":null,"hazardTypes":null}},{"type":"Feature","geometry":{"type":"Point","coordinates":[125.9971308,9.2677435]},"properties":{"id":"way/1007886469","osmId":1007886469,"facilityType":"multi_purpose","name":"Brgy. Union Multi-Purpose Hall","address":"Brgy. Union Multi-Purpose Hall, Manga - Union Road, Madrid, Surigao del Sur, Caraga, 8316, Philippines","capacity":null,"hazardTypes":null}},{"type":"Feature","geometry":{"type":"Point","coordinates":[125.7321263,9.5742198]},"properties":{"id":"node/10597288395","osmId":10597288395,"facilityType":"multi_purpose","name":"Alipao Multi-purpose Cooperative","address":"Alipao Multi-purpose Cooperative, Revelo Street, Sofia Navallo Village, Tayaga, Surigao del Norte, Caraga, Philippines","capacity":null,"hazardTypes":null}},{"type":"Feature","geometry":{"type":"Point","coordinates":[125.7318494,9.5719221]},"properties":{"id":"node/10593465563","osmId":10593465563,"facilityType":"multi_purpose","name":"Bohol Community Multi-Purpose Cooperative","address":"Bohol Community Multi-Purpose Cooperative, Rizal Street, Sofia Navallo Village, Claver, Surigao del Norte, Caraga, Philippines","capacity":null,"hazardTypes":null}},{"type":"Feature","geometry":{"type":"Point","coordinates":[126.1949496,9.0785039]},"properties":{"id":"way/400116091","osmId":400116091,"facilityType":"multi_purpose","name":"Dagocdoc Multi-purpose Gym","address":"Dagocdoc Multi-purpose Gym, Dagocdoc, Poblacion, Tandag, Surigao del Sur, Caraga, 8300, Philippines","capacity":null,"hazardTypes":null}},{"type":"Feature","geometry":{"type":"Point","coordinates":[126.2007328,9.077443]},"properties":{"id":"way/456519640","osmId":456519640,"facilityType":"multi_purpose","name":"Multi-purpose Stage","address":"Multi-purpose Stage, Quezon Street, Santo Niño, Poblacion, Tandag, Surigao del Sur, Caraga, 8300, Philippines","capacity":null,"hazardTypes":null}},{"type":"Feature","geometry":{"type":"Point","coordinates":[123.2335005,10.377302]},"properties":{"id":"way/1292868389","osmId":1292868389,"facilityType":"multi_purpose","name":"Panubigan Multi-purpose Gym","address":"Panubigan Multi-purpose Gym, Canlaon, Panubigan, Negros Oriental, Negros Island Region, 6223, Philippines","capacity":null,"hazardTypes":null}},{"type":"Feature","geometry":{"type":"Point","coordinates":[123.1402488,9.7577093]},"properties":{"id":"way/311587683","osmId":311587683,"facilityType":"multi_purpose","name":"Bindoy Multi-purpose Gym","address":"Bindoy Multi-purpose Gym, Dumaguete North Road, Poblacion, Bindoy, Negros Oriental, Negros Island Region, 6209, Philippines","capacity":null,"hazardTypes":null}},{"type":"Feature","geometry":{"type":"Point","coordinates":[123.8880283,10.3850018]},"properties":{"id":"way/920085662","osmId":920085662,"facilityType":"multi_purpose","name":"Budlaan Multi-purpose Complex","address":"Budlaan Multi-purpose Complex, Budlaan-Sirao Trail, Budla-an, Cebu City, Central Visayas, Philippines","capacity":null,"hazardTypes":null}},{"type":"Feature","geometry":{"type":"Point","coordinates":[123.8691136,10.2856269]},"properties":{"id":"way/617099517","osmId":617099517,"facilityType":"multi_purpose","name":"Multi-Purpose Hall","address":"Multi-Purpose Hall, L. Gabuya Street, Basak San Nicolas, Cebu City, Central Visayas, 6000, Philippines","capacity":null,"hazardTypes":null}},{"type":"Feature","geometry":{"type":"Point","coordinates":[123.8707838,10.2835995]},"properties":{"id":"node/5846373797","osmId":5846373797,"facilityType":"multi_purpose","name":"Alay Kapwa Multi-Purpose Cooperative","address":"Alay Kapwa Multi-Purpose Cooperative, Janssen Road, Alumnos, Cebu City, Central Visayas, 6000, Philippines","capacity":null,"hazardTypes":null}},{"type":"Feature","geometry":{"type":"Point","coordinates":[123.8677845,10.3788845]},"properties":{"id":"node/6907678975","osmId":6907678975,"facilityType":"multi_purpose","name":"Malubog Barangay Multi-purpose building","address":"Malubog Barangay Multi-purpose building, Veterans Drive, Tiguib, Malubog, Cebu City, Central Visayas, Philippines","capacity":null,"hazardTypes":null}},{"type":"Feature","geometry":{"type":"Point","coordinates":[123.8489328,9.6627699]},"properties":{"id":"way/242454767","osmId":242454767,"facilityType":"multi_purpose","name":"Brgy. Booy Multi Purpose Covered Court","address":"Brgy. Booy Multi Purpose Covered Court, Bukid Drive, Lawis, Talisay, Tagbilaran, Bohol, Central Visayas, 6300, Philippines","capacity":null,"hazardTypes":null}},{"type":"Feature","geometry":{"type":"Point","coordinates":[123.8691761,9.6334973]},"properties":{"id":"way/360972731","osmId":360972731,"facilityType":"multi_purpose","name":"Mansasa Multi-purpose","address":"Mansasa Multi-purpose, Bioco Street, Mansasa, Tagbilaran, Bohol, Central Visayas, 6300, Philippines","capacity":null,"hazardTypes":null}},{"type":"Feature","geometry":{"type":"Point","coordinates":[123.7090504,10.308543]},"properties":{"id":"way/255872182","osmId":255872182,"facilityType":"multi_purpose","name":"Corazon Regis Cabrera Multi-purpose Center","address":"Corazon Regis Cabrera Multi-purpose Center, Lutopan Road, Hiring, Don Andres Soriano, Cebu, Central Visayas, Philippines","capacity":null,"hazardTypes":null}},{"type":"Feature","geometry":{"type":"Point","coordinates":[123.6184614,10.0138942]},"properties":{"id":"node/6897167756","osmId":6897167756,"facilityType":"multi_purpose","name":"Sibonga Multi-Purpose Cooperative","address":"Sibonga Multi-Purpose Cooperative, Natalio Bacalso Avenue, Poblacion, Sibonga, Cebu, Central Visayas, 6020, Philippines","capacity":null,"hazardTypes":null}},{"type":"Feature","geometry":{"type":"Point","coordinates":[123.7877919,9.7598748]},"properties":{"id":"way/540790422","osmId":540790422,"facilityType":"multi_purpose","name":"Cuasi Multi-purpose Building","address":"Cuasi Multi-purpose Building, Tagbilaran North Road, Guiwanon, Maribojoc, Bohol, Central Visayas, 6327, Philippines","capacity":null,"hazardTypes":null}},{"type":"Feature","geometry":{"type":"Point","coordinates":[123.8588973,9.638861]},"properties":{"id":"node/11031476596","osmId":11031476596,"facilityType":"multi_purpose","name":"Bohol Diocesain Multi Purpose Coorperative","address":"Bohol Diocesain Multi Purpose Coorperative, Carlos P. Garcia East Avenue, Poblacion Uno, Tagbilaran, Bohol, Central Visayas, 6390, Philippines","capacity":null,"hazardTypes":null}},{"type":"Feature","geometry":{"type":"Point","coordinates":[123.8590043,9.6388802]},"properties":{"id":"node/1512371669","osmId":1512371669,"facilityType":"multi_purpose","name":"Bohol Diocesan Multi-purpose Cooperative","address":"Bohol Diocesan Multi-purpose Cooperative, Carlos P. Garcia East Avenue, Poblacion Uno, Tagbilaran, Bohol, Central Visayas, 6390, Philippines","capacity":null,"hazardTypes":null}},{"type":"Feature","geometry":{"type":"Point","coordinates":[123.9586989,10.3465136]},"properties":{"id":"way/458004802","osmId":458004802,"facilityType":"multi_purpose","name":"Barangay Paknaan Multi-Purpose Building","address":"Barangay Paknaan Multi-Purpose Building, Plaridel Street Extension, Paknaan, Mandaue, Central Visayas, 6014, Philippines","capacity":null,"hazardTypes":null}},{"type":"Feature","geometry":{"type":"Point","coordinates":[123.9720031,10.3789802]},"properties":{"id":"way/1160998739","osmId":1160998739,"facilityType":"multi_purpose","name":"Constancio P. Go Multi-purpose Center","address":"Constancio P. Go Multi-purpose Center, Librado Vacunador Street, Upper Jugan, Jugan, Cebu, Central Visayas, 6001, Philippines","capacity":null,"hazardTypes":null}},{"type":"Feature","geometry":{"type":"Point","coordinates":[124.1609942,9.7409676]},"properties":{"id":"node/6912247185","osmId":6912247185,"facilityType":"multi_purpose","name":"Cambigsi Barangay Multi-Purpose Hall","address":"Cambigsi Barangay Multi-Purpose Hall, Loay Interior Road, Cabacnitan Sur, Bohol, Central Visayas, 6317, Philippines","capacity":null,"hazardTypes":null}},{"type":"Feature","geometry":{"type":"Point","coordinates":[123.948288,9.935622]},"properties":{"id":"node/1758067601","osmId":1758067601,"facilityType":"multi_purpose","name":"Tubigon Loom Weaving Multi Purpose Cooperative","address":"Tubigon Loom Weaving Multi Purpose Cooperative, Tagbilaran North Road, Pooc Occidental, Poblacion, Tubigon, Bohol, Central Visayas, 6329, Philippines","capacity":null,"hazardTypes":null}},{"type":"Feature","geometry":{"type":"Point","coordinates":[124.0238402,9.6346853]},"properties":{"id":"way/1068131641","osmId":1068131641,"facilityType":"multi_purpose","name":"Valladolid Multi-Purpose Stage","address":"Valladolid Multi-Purpose Stage, Tagbilaran City - Corella - Sikatuna - Loboc Road, Purok 1, Villaflor, Loboc, Bohol, Central Visayas, 6316, Philippines","capacity":null,"hazardTypes":null}},{"type":"Feature","geometry":{"type":"Point","coordinates":[124.4130175,9.7135719]},"properties":{"id":"way/726997984","osmId":726997984,"facilityType":"multi_purpose","name":"Itum Multi-Purpose Hall","address":"Itum Multi-Purpose Hall, Tagbilaran East Road, Purok 7, Itum, Duero, Bohol, Central Visayas, 6309, Philippines","capacity":null,"hazardTypes":null}},{"type":"Feature","geometry":{"type":"Point","coordinates":[124.2990333,9.8026387]},"properties":{"id":"way/707516730","osmId":707516730,"facilityType":"multi_purpose","name":"Barangay Sta. Cruz Multi-purpose Hard Court","address":"Barangay Sta. Cruz Multi-purpose Hard Court, Jagna - Sierra Bullones Road, Poblacion, Sierra Bullones, Bohol, Central Visayas, Philippines","capacity":null,"hazardTypes":null}},{"type":"Feature","geometry":{"type":"Point","coordinates":[124.4220927,9.7187141]},"properties":{"id":"way/726594819","osmId":726594819,"facilityType":"multi_purpose","name":"Langkis Multi-Purpose Building/Cover Court/ Day Care Center","address":"Langkis Multi-Purpose Building/Cover Court/ Day Care Center, Tagbilaran East Road, Purok 7, Itum, Duero, Bohol, Central Visayas, 6309, Philippines","capacity":null,"hazardTypes":null}},{"type":"Feature","geometry":{"type":"Point","coordinates":[124.4059533,9.7106851]},"properties":{"id":"way/332494066","osmId":332494066,"facilityType":"multi_purpose","name":"SAN ANTONIO MULTI-PURPOSE HALL","address":"SAN ANTONIO MULTI-PURPOSE HALL, Tagbilaran East Road, Purok 7, Itum, Duero, Bohol, Central Visayas, 6309, Philippines","capacity":null,"hazardTypes":null}},{"type":"Feature","geometry":{"type":"Point","coordinates":[124.2913265,9.7984125]},"properties":{"id":"way/707516733","osmId":707516733,"facilityType":"multi_purpose","name":"Barangay Villa Garcia Multi-purpose Hard Court","address":"Barangay Villa Garcia Multi-purpose Hard Court, Jagna - Sierra Bullones Road, Matin-ao, Jagna, Bohol, Central Visayas, Philippines","capacity":null,"hazardTypes":null}},{"type":"Feature","geometry":{"type":"Point","coordinates":[124.3540014,9.7608233]},"properties":{"id":"way/721529276","osmId":721529276,"facilityType":"multi_purpose","name":"Taytay Multi-Purpose Hall","address":"Taytay Multi-Purpose Hall, Jagna - Sierra Bullones Road, Purok 4, Old Town Sierra Bullones, Matin-ao, Jagna, Bohol, Central Visayas, Philippines","capacity":null,"hazardTypes":null}},{"type":"Feature","geometry":{"type":"Point","coordinates":[124.4037486,9.7322571]},"properties":{"id":"way/730092205","osmId":730092205,"facilityType":"multi_purpose","name":"Payao Multi-purpose Building","address":"Payao Multi-purpose Building, Kalahi Road, Purok 7, Payao, Duero, Bohol, Central Visayas, 6309, Philippines","capacity":null,"hazardTypes":null}},{"type":"Feature","geometry":{"type":"Point","coordinates":[124.4124316,9.7440838]},"properties":{"id":"way/338721585","osmId":338721585,"facilityType":"multi_purpose","name":"Danao Multi-Purpose Building(Barangay Stage)","address":"Danao Multi-Purpose Building(Barangay Stage), Kalahi Road, Purok 7, Payao, Duero, Bohol, Central Visayas, 6309, Philippines","capacity":null,"hazardTypes":null}},{"type":"Feature","geometry":{"type":"Point","coordinates":[124.3881774,9.6952951]},"properties":{"id":"way/726600148","osmId":726600148,"facilityType":"multi_purpose","name":"San Isidro Multi-Purpose","address":"San Isidro Multi-Purpose, Tagbilaran East Road, Purok 1, Madua Sur, Duero, Bohol, Central Visayas, 6309, Philippines","capacity":null,"hazardTypes":null}},{"type":"Feature","geometry":{"type":"Point","coordinates":[124.3762819,9.7030592]},"properties":{"id":"way/726600149","osmId":726600149,"facilityType":"multi_purpose","name":"Cansuhay Multi Purpose Hall","address":"Cansuhay Multi Purpose Hall, Cansuhay, Duero, Bohol, Central Visayas, 6309, Philippines","capacity":null,"hazardTypes":null}},{"type":"Feature","geometry":{"type":"Point","coordinates":[124.4240777,9.7420056]},"properties":{"id":"way/726998118","osmId":726998118,"facilityType":"multi_purpose","name":"Lobogon Multi Purpose Hall","address":"Lobogon Multi Purpose Hall, Kalahi Road, Purok 7, Payao, Duero, Bohol, Central Visayas, 6309, Philippines","capacity":null,"hazardTypes":null}},{"type":"Feature","geometry":{"type":"Point","coordinates":[124.3574722,9.7458102]},"properties":{"id":"way/721794630","osmId":721794630,"facilityType":"multi_purpose","name":"Bangwalog Multi-Purpose Hall","address":"Bangwalog Multi-Purpose Hall, Jagna - Sierra Bullones Road, Purok 4, Old Town Sierra Bullones, Matin-ao, Jagna, Bohol, Central Visayas, Philippines","capacity":null,"hazardTypes":null}},{"type":"Feature","geometry":{"type":"Point","coordinates":[124.4009144,9.6957531]},"properties":{"id":"way/727944276","osmId":727944276,"facilityType":"multi_purpose","name":"Madua Norte Multi-Purpose Building","address":"Madua Norte Multi-Purpose Building, Duero, Madua Norte, Duero, Bohol, Central Visayas, 6309, Philippines","capacity":null,"hazardTypes":null}},{"type":"Feature","geometry":{"type":"Point","coordinates":[124.3994695,9.6936741]},"properties":{"id":"way/730420870","osmId":730420870,"facilityType":"multi_purpose","name":"Madua Sur Multi-purpose Building","address":"Madua Sur Multi-purpose Building, Tagbilaran East Road, Purok 1, Madua Sur, Duero, Bohol, Central Visayas, 6309, Philippines","capacity":null,"hazardTypes":null}},{"type":"Feature","geometry":{"type":"Point","coordinates":[124.4024203,9.6998794]},"properties":{"id":"way/332571676","osmId":332571676,"facilityType":"multi_purpose","name":"multi purpose hall","address":"multi purpose hall, Tagbilaran East Road, Purok 1, Madua Norte, Duero, Bohol, Central Visayas, 6309, Philippines","capacity":null,"hazardTypes":null}},{"type":"Feature","geometry":{"type":"Point","coordinates":[124.4289014,9.7224703]},"properties":{"id":"way/726998057","osmId":726998057,"facilityType":"multi_purpose","name":"Guinsularan Multi-Purpose Hall","address":"Guinsularan Multi-Purpose Hall, Tagbilaran East Road, Purok 7, Itum, Duero, Bohol, Central Visayas, 6309, Philippines","capacity":null,"hazardTypes":null}},{"type":"Feature","geometry":{"type":"Point","coordinates":[124.4397547,9.8885921]},"properties":{"id":"way/1164586468","osmId":1164586468,"facilityType":"multi_purpose","name":"Alicia Multi-Purpose Covered Court","address":"Alicia Multi-Purpose Covered Court, Tagbilaran East Road, Poblacion, Alicia, Bohol, Central Visayas, 6314, Philippines","capacity":null,"hazardTypes":null}},{"type":"Feature","geometry":{"type":"Point","coordinates":[123.940676,10.3907489]},"properties":{"id":"way/1131166894","osmId":1131166894,"facilityType":"multi_purpose","name":"Multi-Purpose Hall","address":"Multi-Purpose Hall, Peter Street, St Francis Hills, Tolotolo, Cebu, Central Visayas, 6001, Philippines","capacity":null,"hazardTypes":null}},{"type":"Feature","geometry":{"type":"Point","coordinates":[124.877031,10.1292235]},"properties":{"id":"way/398896026","osmId":398896026,"facilityType":"multi_purpose","name":"Barangay Ibarra Multi Purpose Gym","address":"Barangay Ibarra Multi Purpose Gym, Estrella Road, Ibarra, Southern Leyte, Eastern Visayas, Philippines","capacity":null,"hazardTypes":null}},{"type":"Feature","geometry":{"type":"Point","coordinates":[124.8828915,10.1285286]},"properties":{"id":"way/399035007","osmId":399035007,"facilityType":"multi_purpose","name":"Southern Leyte Employees Multi-Purpose Cooperative","address":"Southern Leyte Employees Multi-Purpose Cooperative, R. Kangleon Street, Asuncion, Maasin, Southern Leyte, Eastern Visayas, 6600, Philippines","capacity":null,"hazardTypes":null}},{"type":"Feature","geometry":{"type":"Point","coordinates":[124.8382265,10.1331599]},"properties":{"id":"node/9531165905","osmId":9531165905,"facilityType":"multi_purpose","name":"Southern Leyte Employees Multi-Purpose Cooperative","address":"Southern Leyte Employees Multi-Purpose Cooperative, Tomas Oppus Street, Tunga-tunga, Maasin, Southern Leyte, Eastern Visayas, Philippines","capacity":null,"hazardTypes":null}},{"type":"Feature","geometry":{"type":"Point","coordinates":[124.8376837,10.1344562]},"properties":{"id":"node/5166922425","osmId":5166922425,"facilityType":"multi_purpose","name":"Lamac Multi-Purpose Cooperative","address":"Lamac Multi-Purpose Cooperative, R. Kangleon Street, Tunga-tunga, Maasin, Southern Leyte, Eastern Visayas, Philippines","capacity":null,"hazardTypes":null}},{"type":"Feature","geometry":{"type":"Point","coordinates":[124.8429657,10.1335997]},"properties":{"id":"node/9529721731","osmId":9529721731,"facilityType":"multi_purpose","name":"Metro Ormoc Community Multi-Purpose Cooperative","address":"Metro Ormoc Community Multi-Purpose Cooperative, R. Kangleon Street, Tunga-tunga, Mantahan, Maasin, Southern Leyte, Eastern Visayas, Philippines","capacity":null,"hazardTypes":null}},{"type":"Feature","geometry":{"type":"Point","coordinates":[124.8587758,10.1316497]},"properties":{"id":"node/5246620159","osmId":5246620159,"facilityType":"multi_purpose","name":"Southern Leyte Employees Multi-Purpose Cooperative","address":"Southern Leyte Employees Multi-Purpose Cooperative, R. Kangleon Street, Asuncion, Maasin, Southern Leyte, Eastern Visayas, 6600, Philippines","capacity":null,"hazardTypes":null}},{"type":"Feature","geometry":{"type":"Point","coordinates":[124.7855504,10.2835484]},"properties":{"id":"way/1087218495","osmId":1087218495,"facilityType":"multi_purpose","name":"Barangay San Pedro Multi-Purpose Hall","address":"Barangay San Pedro Multi-Purpose Hall, San Juan Street, San Isidro, San Pedro, Matalom, 5th District, Leyte, Eastern Visayas, 6526, Philippines","capacity":null,"hazardTypes":null}},{"type":"Feature","geometry":{"type":"Point","coordinates":[124.9431689,10.3965529]},"properties":{"id":"way/400297653","osmId":400297653,"facilityType":"multi_purpose","name":"Libas Multi Purpose Court","address":"Libas Multi Purpose Court, libas bridge, Pointsettia, Libas, Southern Leyte, Eastern Visayas, 6606, Philippines","capacity":null,"hazardTypes":null}},{"type":"Feature","geometry":{"type":"Point","coordinates":[124.9738831,10.3130897]},"properties":{"id":"way/362005600","osmId":362005600,"facilityType":"multi_purpose","name":"Cambite Multi-Purpose Court","address":"Cambite Multi-Purpose Court, Maasin-Macrohon-Sogod Road, Banday, Poblacion, San Agustin, Southern Leyte, Eastern Visayas, Philippines","capacity":null,"hazardTypes":null}},{"type":"Feature","geometry":{"type":"Point","coordinates":[124.9797252,10.3935071]},"properties":{"id":"way/366244803","osmId":366244803,"facilityType":"multi_purpose","name":"Multi-Purpose Court","address":"Multi-Purpose Court, Court, mini path, Rizal, Sogod, Southern Leyte, Eastern Visayas, 6606, Philippines","capacity":null,"hazardTypes":null}},{"type":"Feature","geometry":{"type":"Point","coordinates":[124.9814143,10.3886662]},"properties":{"id":"way/1088140007","osmId":1088140007,"facilityType":"multi_purpose","name":"Multi Purpose Covered Court","address":"Multi Purpose Covered Court, Concepcion Street, Rizal, Sogod, Southern Leyte, Eastern Visayas, 6606, Philippines","capacity":null,"hazardTypes":null}},{"type":"Feature","geometry":{"type":"Point","coordinates":[125.0189989,10.3814632]},"properties":{"id":"way/473787642","osmId":473787642,"facilityType":"multi_purpose","name":"Multi-Purpose Court","address":"Multi-Purpose Court, Maharlika Highway, Mahayahay, Barrio, Southern Leyte, Eastern Visayas, Philippines","capacity":null,"hazardTypes":null}},{"type":"Feature","geometry":{"type":"Point","coordinates":[125.0043078,10.4215054]},"properties":{"id":"way/1201222986","osmId":1201222986,"facilityType":"multi_purpose","name":"Hibodhibod Barangay Multi-Purpose Hall","address":"Hibodhibod Barangay Multi-Purpose Hall, Diversion Road, Purok 1, Suba, Hibod-hibod, Southern Leyte, Eastern Visayas, Philippines","capacity":null,"hazardTypes":null}},{"type":"Feature","geometry":{"type":"Point","coordinates":[124.9800163,10.3853101]},"properties":{"id":"node/11989551558","osmId":11989551558,"facilityType":"multi_purpose","name":"Saint Bernard Multi-Purpose Cooperative","address":"Saint Bernard Multi-Purpose Cooperative, Bagares Street, Zone Ⅲ, Sogod, Southern Leyte, Eastern Visayas, 6606, Philippines","capacity":null,"hazardTypes":null}},{"type":"Feature","geometry":{"type":"Point","coordinates":[124.9814116,10.3886703]},"properties":{"id":"node/11261820077","osmId":11261820077,"facilityType":"multi_purpose","name":"ICP Sogod Multi-Purpose Covered Court","address":"ICP Sogod Multi-Purpose Covered Court, Concepcion Street, Rizal, Sogod, Southern Leyte, Eastern Visayas, 6606, Philippines","capacity":null,"hazardTypes":null}},{"type":"Feature","geometry":{"type":"Point","coordinates":[125.2440908,10.339198]},"properties":{"id":"way/1144604246","osmId":1144604246,"facilityType":"multi_purpose","name":"Biasong Multi-Purpose Auditorium","address":"Biasong Multi-Purpose Auditorium, Biasong - Palayan Provincial Road, Biasong, Southern Leyte, Eastern Visayas, Philippines","capacity":null,"hazardTypes":null}},{"type":"Feature","geometry":{"type":"Point","coordinates":[125.2514372,10.3511587]},"properties":{"id":"node/6094206419","osmId":6094206419,"facilityType":"multi_purpose","name":"San Jose Parish Hinundayan Multi-Purpose Cooperative","address":"San Jose Parish Hinundayan Multi-Purpose Cooperative, Jct Himay-angan-Silago-Abuyog Boundary Road, Hinundayan, Southern Leyte, Eastern Visayas, Philippines","capacity":null,"hazardTypes":null}},{"type":"Feature","geometry":{"type":"Point","coordinates":[124.9844821,10.2543251]},"properties":{"id":"way/1095030688","osmId":1095030688,"facilityType":"multi_purpose","name":"San Isidro Multi-Purpose Court","address":"San Isidro Multi-Purpose Court, Agustin Dulla, Sr. Street, San Isidro, Punong, Southern Leyte, Eastern Visayas, 6605, Philippines","capacity":null,"hazardTypes":null}},{"type":"Feature","geometry":{"type":"Point","coordinates":[125.1185852,10.1559214]},"properties":{"id":"way/865196938","osmId":865196938,"facilityType":"multi_purpose","name":"Liloan Multi-Purpose Court","address":"Liloan Multi-Purpose Court, Veyra Street, Lilo-an, Southern Leyte, Eastern Visayas, 6612, Philippines","capacity":null,"hazardTypes":null}},{"type":"Feature","geometry":{"type":"Point","coordinates":[125.0180482,10.0338018]},"properties":{"id":"way/246114292","osmId":246114292,"facilityType":"multi_purpose","name":"Multi-Purpose Building","address":"Multi-Purpose Building, Maasin – Macrohon – Sogod Road, Tambo, Lungsodaan, Padre Burgos, Southern Leyte, Eastern Visayas, 6602, Philippines","capacity":null,"hazardTypes":null}},{"type":"Feature","geometry":{"type":"Point","coordinates":[125.1105273,10.3507783]},"properties":{"id":"node/11006948466","osmId":11006948466,"facilityType":"multi_purpose","name":"Brgy. Catmon Multi Purpose Court","address":"Brgy. Catmon Multi Purpose Court, Cagayan Provincial Road, Catmon, Southern Leyte, Eastern Visayas, Philippines","capacity":null,"hazardTypes":null}},{"type":"Feature","geometry":{"type":"Point","coordinates":[125.5065392,9.720856]},"properties":{"id":"node/2552619000","osmId":2552619000,"facilityType":"multi_purpose","name":"Quezon Barangay Multi-Purpose Building","address":"Quezon Barangay Multi-Purpose Building, Surigao-Butuan National Highway, Tambis, Surigao City, Surigao del Norte, Caraga, 8400, Philippines","capacity":null,"hazardTypes":null}},{"type":"Feature","geometry":{"type":"Point","coordinates":[125.5038165,9.6994059]},"properties":{"id":"node/2552613172","osmId":2552613172,"facilityType":"multi_purpose","name":"Barangay Trinidad Multi-purpose Building","address":"Barangay Trinidad Multi-purpose Building, Surigao-Butuan National Highway, Trinidad, Surigao del Norte, Caraga, 8404, Philippines","capacity":null,"hazardTypes":null}},{"type":"Feature","geometry":{"type":"Point","coordinates":[119.5175528,10.8243493]},"properties":{"id":"node/4605115889","osmId":4605115889,"facilityType":"multi_purpose","name":"Taytay Multi-Purpose Cooperative","address":"Taytay Multi-Purpose Cooperative, Purok Little Tondo, Little Tondo, Poblacion, Taytay, Palawan, Mimaropa, 5312, Philippines","capacity":null,"hazardTypes":null}},{"type":"Feature","geometry":{"type":"Point","coordinates":[122.3187755,10.7653125]},"properties":{"id":"way/480149248","osmId":480149248,"facilityType":"multi_purpose","name":"Tubong- tubong Multi Purpose Ground","address":"Tubong- tubong Multi Purpose Ground, Zone 2, Tubungan, Iloilo, Western Visayas, Philippines","capacity":null,"hazardTypes":null}},{"type":"Feature","geometry":{"type":"Point","coordinates":[122.3070018,10.7781162]},"properties":{"id":"way/589557620","osmId":589557620,"facilityType":"multi_purpose","name":"Tubungan Small Coconut Growers Multi-Purpose Cooperative (TSCGMPC)","address":"Tubungan Small Coconut Growers Multi-Purpose Cooperative (TSCGMPC), San Jose, Iloilo, Western Visayas, Philippines","capacity":null,"hazardTypes":null}},{"type":"Feature","geometry":{"type":"Point","coordinates":[122.3531397,10.6714258]},"properties":{"id":"way/571527021","osmId":571527021,"facilityType":"multi_purpose","name":"Multi-Purpose Hall","address":"Multi-Purpose Hall, Iloilo-Antique Road, Seafdec Village, Buyu-an, Tigbauan, Iloilo, Western Visayas, 5021, Philippines","capacity":null,"hazardTypes":null}},{"type":"Feature","geometry":{"type":"Point","coordinates":[122.2274023,10.6390292]},"properties":{"id":"way/298300121","osmId":298300121,"facilityType":"multi_purpose","name":"Multi-Purpose Building","address":"Multi-Purpose Building, Road 3 (Wet Lab Road), Bolho, Sapa, Miagao, Iloilo, Western Visayas, 5023, Philippines","capacity":null,"hazardTypes":null}},{"type":"Feature","geometry":{"type":"Point","coordinates":[121.9352406,10.756991]},"properties":{"id":"node/12859937797","osmId":12859937797,"facilityType":"multi_purpose","name":"San Jose Multi-Purpose Cooperative","address":"San Jose Multi-Purpose Cooperative, Nitas Way, Poblacion, San Jose de Buenavista, Antique, Western Visayas, 5700, Philippines","capacity":null,"hazardTypes":null}},{"type":"Feature","geometry":{"type":"Point","coordinates":[121.9438288,10.7457005]},"properties":{"id":"node/11864997470","osmId":11864997470,"facilityType":"multi_purpose","name":"Barbaza Multi-Purpose Cooperative","address":"Barbaza Multi-Purpose Cooperative, Cerdeña Street, Malaiba, Poblacion, Maybato North, San Jose de Buenavista, Antique, Western Visayas, 5700, Philippines","capacity":null,"hazardTypes":null}},{"type":"Feature","geometry":{"type":"Point","coordinates":[122.1378481,10.5867418]},"properties":{"id":"way/289382547","osmId":289382547,"facilityType":"multi_purpose","name":"Purok V Multi-Purpose Hall","address":"Purok V Multi-Purpose Hall, Santa Monica Street, Poblacion, Purok 5, San Joaquin, Iloilo, Western Visayas, Philippines","capacity":null,"hazardTypes":null}},{"type":"Feature","geometry":{"type":"Point","coordinates":[122.3189445,10.7647517]},"properties":{"id":"way/289345982","osmId":289345982,"facilityType":"multi_purpose","name":"Multi Purpose Gym","address":"Multi Purpose Gym, Federal Street, Zone 2, Tubungan, Iloilo, Western Visayas, 5027, Philippines","capacity":null,"hazardTypes":null}},{"type":"Feature","geometry":{"type":"Point","coordinates":[122.3207869,10.7689786]},"properties":{"id":"way/289346029","osmId":289346029,"facilityType":"multi_purpose","name":"Multi Purpose Covered Gym","address":"Multi Purpose Covered Gym, Guimbal-Igbaras-Tubungan-Leon Road, Baldan, Nasunugan, Tubungan, Iloilo, Western Visayas, 5027, Philippines","capacity":null,"hazardTypes":null}},{"type":"Feature","geometry":{"type":"Point","coordinates":[122.316109,10.7737386]},"properties":{"id":"way/480192755","osmId":480192755,"facilityType":"multi_purpose","name":"Siguidan Multi Purpose Plaza","address":"Siguidan Multi Purpose Plaza, San Antonio Street, Baldan, Tubungan, Iloilo, Western Visayas, 5027, Philippines","capacity":null,"hazardTypes":null}},{"type":"Feature","geometry":{"type":"Point","coordinates":[122.3102024,10.7698308]},"properties":{"id":"way/480152723","osmId":480152723,"facilityType":"multi_purpose","name":"Multi Purpose Plaza","address":"Multi Purpose Plaza, Igbaras-Tubungan Road, Ambarihon, Iloilo, Western Visayas, 5027, Philippines","capacity":null,"hazardTypes":null}},{"type":"Feature","geometry":{"type":"Point","coordinates":[121.9767771,10.5188852]},"properties":{"id":"way/642698093","osmId":642698093,"facilityType":"multi_purpose","name":"Barasanan B Multi- purpose Hall","address":"Barasanan B Multi- purpose Hall, Anini-y–Tobias Fornier Road, Poblacion Norte, Villaflor, Tobias Fornier, Antique, Western Visayas, 5716, Philippines","capacity":null,"hazardTypes":null}},{"type":"Feature","geometry":{"type":"Point","coordinates":[122.3067934,10.7781271]},"properties":{"id":"way/589557418","osmId":589557418,"facilityType":"multi_purpose","name":"Tubungan Small Coconut Growers Multi-Purpose Cooperative (TSCGMPC)","address":"Tubungan Small Coconut Growers Multi-Purpose Cooperative (TSCGMPC), TSCGMPC Road, Tubungan Small Coconut Growers Multi-Purpose Cooperative (TSCGMPC), San Jose, Iloilo, Western Visayas, 5027, Philippines","capacity":null,"hazardTypes":null}},{"type":"Feature","geometry":{"type":"Point","coordinates":[122.3226807,10.7781112]},"properties":{"id":"way/480543508","osmId":480543508,"facilityType":"multi_purpose","name":"Mayang Multi Purpose Plaza","address":"Mayang Multi Purpose Plaza, Ago Road, Rice Terraces, Ago, Iloilo, Western Visayas, 5027, Philippines","capacity":null,"hazardTypes":null}},{"type":"Feature","geometry":{"type":"Point","coordinates":[122.3353353,10.7727767]},"properties":{"id":"node/4731717039","osmId":4731717039,"facilityType":"multi_purpose","name":"Borong Multi Purpose Plaza","address":"Borong Multi Purpose Plaza, Guimbal-Igbaras-Tubungan-Leon Road, Mina, Borong, Iloilo, Western Visayas, 5027, Philippines","capacity":null,"hazardTypes":null}},{"type":"Feature","geometry":{"type":"Point","coordinates":[122.9524307,10.6775356]},"properties":{"id":"way/53516077","osmId":53516077,"facilityType":"multi_purpose","name":"Negros Occidental Multi-purpose Gym","address":"Negros Occidental Multi-purpose Gym, Aguinaldo Street, Barangay 4, Bacolod-1, Bacolod, Negros Island Region, 6100, Philippines","capacity":null,"hazardTypes":null}},{"type":"Feature","geometry":{"type":"Point","coordinates":[122.9481445,10.6706063]},"properties":{"id":"way/831687478","osmId":831687478,"facilityType":"multi_purpose","name":"LCCFC Multi-Purpose Cooperative Bldg. 1","address":"LCCFC Multi-Purpose Cooperative Bldg. 1, Gatuslao Street, Barangay 11, Barangay 12, Bacolod-1, Bacolod, Negros Island Region, Philippines","capacity":null,"hazardTypes":null}},{"type":"Feature","geometry":{"type":"Point","coordinates":[123.3801484,10.8114128]},"properties":{"id":"way/335166299","osmId":335166299,"facilityType":"multi_purpose","name":"Bato Multi purpose Gym","address":"Bato Multi purpose Gym, A.E. Marañon Extension, Bato, Sagay, Negros Occidental, Negros Island Region, 6122, Philippines","capacity":null,"hazardTypes":null}},{"type":"Feature","geometry":{"type":"Point","coordinates":[122.9691769,10.7418957]},"properties":{"id":"way/246578614","osmId":246578614,"facilityType":"multi_purpose","name":"Multi-purpose Gym","address":"Multi-purpose Gym, Mabini Street, Zone 1, Talisay, Negros Occidental, Negros Island Region, 6115, Philippines","capacity":null,"hazardTypes":null}},{"type":"Feature","geometry":{"type":"Point","coordinates":[122.9727678,10.7408685]},"properties":{"id":"way/246578634","osmId":246578634,"facilityType":"multi_purpose","name":"Multi-purpose Gym","address":"Multi-purpose Gym, San Esteban Street, Carmela Valley Homes Ⅰ, Zone 12, Talisay, Negros Occidental, Negros Island Region, 6115, Philippines","capacity":null,"hazardTypes":null}},{"type":"Feature","geometry":{"type":"Point","coordinates":[123.0648533,10.8736239]},"properties":{"id":"way/779313781","osmId":779313781,"facilityType":"multi_purpose","name":"VICMICO Earners Multi-Purpose Cooperative","address":"VICMICO Earners Multi-Purpose Cooperative, Paz Avenue, Canetown Subdivision, Barangay XX, Victorias, Negros Occidental, Negros Island Region, 6119, Philippines","capacity":null,"hazardTypes":null}},{"type":"Feature","geometry":{"type":"Point","coordinates":[122.9664929,10.7348968]},"properties":{"id":"node/7755549631","osmId":7755549631,"facilityType":"multi_purpose","name":"Dos Hermanas Multi-Purpose Cooperative","address":"Dos Hermanas Multi-Purpose Cooperative, General Aniceto Lacson Street, Zone 9, Talisay, Negros Occidental, Negros Island Region, 6115, Philippines","capacity":null,"hazardTypes":null}},{"type":"Feature","geometry":{"type":"Point","coordinates":[122.6257615,11.1015259]},"properties":{"id":"way/116298362","osmId":116298362,"facilityType":"multi_purpose","name":"to Gemat-y Multi Purpose Hall","address":"to Gemat-y Multi Purpose Hall, Man-it, Gemat-y, Iloilo, Western Visayas, 5037, Philippines","capacity":null,"hazardTypes":null}},{"type":"Feature","geometry":{"type":"Point","coordinates":[122.5341327,10.7207992]},"properties":{"id":"way/1106124735","osmId":1106124735,"facilityType":"multi_purpose","name":"BELISON MULTI-PURPOSE COOPERATIVE-COOPTEL","address":"BELISON MULTI-PURPOSE COOPERATIVE-COOPTEL, Guzman Street, Ana Ros Village Subdivision, Mandurriao, Hibao-an Sur, Iloilo City, Western Visayas, 5000, Philippines","capacity":null,"hazardTypes":null}},{"type":"Feature","geometry":{"type":"Point","coordinates":[122.5520122,10.7212021]},"properties":{"id":"way/308686957","osmId":308686957,"facilityType":"multi_purpose","name":"Calubihan Multi-Purpose Hall","address":"Calubihan Multi-Purpose Hall, East Service Road, Dungon A, Jaro, Calubihan, Iloilo City, Western Visayas, 5000, Philippines","capacity":null,"hazardTypes":null}},{"type":"Feature","geometry":{"type":"Point","coordinates":[122.5664668,10.7153949]},"properties":{"id":"node/4728751401","osmId":4728751401,"facilityType":"multi_purpose","name":"WVCST Multi Purpose Cooperative","address":"WVCST Multi Purpose Cooperative, Burgos Street, Railway, La Paz, Tabuc Suba, Iloilo City, Western Visayas, 5000, Philippines","capacity":null,"hazardTypes":null}},{"type":"Feature","geometry":{"type":"Point","coordinates":[122.5653533,10.7166966]},"properties":{"id":"node/8903761255","osmId":8903761255,"facilityType":"multi_purpose","name":"WVCST Multi purpose Coop - Food Source","address":"WVCST Multi purpose Coop - Food Source, Burgos Street, Railway, La Paz, Tabuc Suba, Iloilo City, Western Visayas, 5000, Philippines","capacity":null,"hazardTypes":null}},{"type":"Feature","geometry":{"type":"Point","coordinates":[122.559942,10.715472]},"properties":{"id":"node/4478822094","osmId":4478822094,"facilityType":"multi_purpose","name":"WVSUMC Multi Purpose Coop Extension","address":"WVSUMC Multi Purpose Coop Extension, D. B. Ledesma Street, Jereos, Desamparados, Jaro, Calubihan, Iloilo City, Western Visayas, 5000, Philippines","capacity":null,"hazardTypes":null}},{"type":"Feature","geometry":{"type":"Point","coordinates":[122.7133318,11.1729863]},"properties":{"id":"way/261183357","osmId":261183357,"facilityType":"multi_purpose","name":"Salngan Multi-Purpose Court","address":"Salngan Multi-Purpose Court, Imbang-Salngan Road, Salngan, Iloilo, Western Visayas, Philippines","capacity":null,"hazardTypes":null}},{"type":"Feature","geometry":{"type":"Point","coordinates":[122.6501666,11.1266448]},"properties":{"id":"way/514361408","osmId":514361408,"facilityType":"multi_purpose","name":"Sablogon Multi-Purpose Covered Gym","address":"Sablogon Multi-Purpose Covered Gym, Iloilo-Capiz Road, Barasan, Poblacion Ilawod, Passi, Iloilo, Western Visayas, 5037, Philippines","capacity":null,"hazardTypes":null}},{"type":"Feature","geometry":{"type":"Point","coordinates":[122.6214426,11.1393911]},"properties":{"id":"way/560606797","osmId":560606797,"facilityType":"multi_purpose","name":"Pgaypay Multi Purpose Pavement","address":"Pgaypay Multi Purpose Pavement, Malag-it Peq Brgy Road, Passi, Iloilo, Western Visayas, 5037, Philippines","capacity":null,"hazardTypes":null}},{"type":"Feature","geometry":{"type":"Point","coordinates":[122.5272241,11.059707]},"properties":{"id":"way/480138094","osmId":480138094,"facilityType":"multi_purpose","name":"Lanot Grande Multi Purpose Plaza","address":"Lanot Grande Multi Purpose Plaza, Pototan-Tina-Lambunao Road, Marong, Iloilo, Western Visayas, 5033, Philippines","capacity":null,"hazardTypes":null}},{"type":"Feature","geometry":{"type":"Point","coordinates":[122.622632,11.1310461]},"properties":{"id":"way/560606760","osmId":560606760,"facilityType":"multi_purpose","name":"Malag-it Pequeño Multi-Purpose Pavement","address":"Malag-it Pequeño Multi-Purpose Pavement, Malag-it Peq Brgy Road, Passi, Iloilo, Western Visayas, 5037, Philippines","capacity":null,"hazardTypes":null}},{"type":"Feature","geometry":{"type":"Point","coordinates":[122.6131913,11.1311685]},"properties":{"id":"way/526628281","osmId":526628281,"facilityType":"multi_purpose","name":"Malag-it Grande Multi-Purpose Hall","address":"Malag-it Grande Multi-Purpose Hall, Bangga Buyo – Malag-it Grande Road, Malag-it Grande, Iloilo, Western Visayas, 5037, Philippines","capacity":null,"hazardTypes":null}},{"type":"Feature","geometry":{"type":"Point","coordinates":[122.5561283,10.9910265]},"properties":{"id":"way/554783296","osmId":554783296,"facilityType":"multi_purpose","name":"Cabayogan Multi- purpose Cooperative","address":"Cabayogan Multi- purpose Cooperative, Janiuay-Badiangan-Tina Road, Poblacion, Damires, Iloilo, Western Visayas, 5033, Philippines","capacity":null,"hazardTypes":null}},{"type":"Feature","geometry":{"type":"Point","coordinates":[122.664811,11.1329278]},"properties":{"id":"way/801895423","osmId":801895423,"facilityType":"multi_purpose","name":"Sito Ansag Multi Purpose Pavement","address":"Sito Ansag Multi Purpose Pavement, Sitio Ansag Road, Javellana, Passi, Iloilo, Western Visayas, 5037, Philippines","capacity":null,"hazardTypes":null}},{"type":"Feature","geometry":{"type":"Point","coordinates":[122.6770088,11.0760786]},"properties":{"id":"way/1117560223","osmId":1117560223,"facilityType":"multi_purpose","name":"Tambunac Multi-purpose Hall","address":"Tambunac Multi-purpose Hall, Barangay Road, Tambunac, Iloilo, Western Visayas, 5036, Philippines","capacity":null,"hazardTypes":null}},{"type":"Feature","geometry":{"type":"Point","coordinates":[122.7317611,11.2151951]},"properties":{"id":"node/4462148589","osmId":4462148589,"facilityType":"multi_purpose","name":"Tagubong Multi-Purpose Covered Gym","address":"Tagubong Multi-Purpose Covered Gym, Imbang-Salngan Road, Overflow, Passi, Iloilo, Western Visayas, Philippines","capacity":null,"hazardTypes":null}},{"type":"Feature","geometry":{"type":"Point","coordinates":[122.5256858,11.081755]},"properties":{"id":"node/4731536300","osmId":4731536300,"facilityType":"multi_purpose","name":"Buri Multi Purpose Plaza","address":"Buri Multi Purpose Plaza, Patag Road, Patag, Iloilo, Western Visayas, 5040, Philippines","capacity":null,"hazardTypes":null}},{"type":"Feature","geometry":{"type":"Point","coordinates":[122.5209069,11.088928]},"properties":{"id":"node/4896206721","osmId":4896206721,"facilityType":"multi_purpose","name":"Gines Multi-Purpose Hall","address":"Gines Multi-Purpose Hall, Old Iloilo-Capiz Road, Poblacion Ilawod, Tranghawan, Iloilo, Western Visayas, 5042, Philippines","capacity":null,"hazardTypes":null}},{"type":"Feature","geometry":{"type":"Point","coordinates":[122.718316,11.0243727]},"properties":{"id":"node/11233992937","osmId":11233992937,"facilityType":"multi_purpose","name":"Balunos multi purpose hall","address":"Balunos multi purpose hall, Jalandoni Street, Sitio Tampi, Dawis, Iloilo, Western Visayas, 5035, Philippines","capacity":null,"hazardTypes":null}},{"type":"Feature","geometry":{"type":"Point","coordinates":[122.6262284,11.1011679]},"properties":{"id":"node/1234309616","osmId":1234309616,"facilityType":"multi_purpose","name":"Gemat-y Multi-purpose Pavement","address":"Gemat-y Multi-purpose Pavement, to Gemat-y Multi Purpose Hall, Man-it, Passi, Iloilo, Western Visayas, 5037, Philippines","capacity":null,"hazardTypes":null}},{"type":"Feature","geometry":{"type":"Point","coordinates":[122.6700321,11.2017558]},"properties":{"id":"node/1140481880","osmId":1140481880,"facilityType":"multi_purpose","name":"Aglalana Multi-purpose Hall","address":"Aglalana Multi-purpose Hall, Iloilo – Capiz Road, Bayan, Iloilo, Western Visayas, Philippines","capacity":null,"hazardTypes":null}},{"type":"Feature","geometry":{"type":"Point","coordinates":[122.5900363,10.5982889]},"properties":{"id":"way/248153303","osmId":248153303,"facilityType":"multi_purpose","name":"Guimaras Provincial Multi-Purpose Gymasium","address":"Guimaras Provincial Multi-Purpose Gymasium, Guimaras Circumferential Road, San Miguel, Jordan, Guimaras, Western Visayas, 5045, Philippines","capacity":null,"hazardTypes":null}},{"type":"Feature","geometry":{"type":"Point","coordinates":[122.5915927,10.6608344]},"properties":{"id":"way/308833008","osmId":308833008,"facilityType":"multi_purpose","name":"Jordan Multi-Purpose Gym","address":"Jordan Multi-Purpose Gym, Jordan – Rizal Wharf Road, Poblacion, Jordan, Guimaras, Western Visayas, 5045, Philippines","capacity":null,"hazardTypes":null}},{"type":"Feature","geometry":{"type":"Point","coordinates":[122.5892527,10.7862218]},"properties":{"id":"node/2536185625","osmId":2536185625,"facilityType":"multi_purpose","name":"Leganes Multi-Purpose Gym","address":"Leganes Multi-Purpose Gym, Rizal Street, Poblacion, Cagamutan Sur, Leganes, Iloilo, Western Visayas, 5003, Philippines","capacity":null,"hazardTypes":null}},{"type":"Feature","geometry":{"type":"Point","coordinates":[122.4584564,10.7895483]},"properties":{"id":"node/4728775009","osmId":4728775009,"facilityType":"multi_purpose","name":"Santa Cruz Multi-purpose Cooperative","address":"Santa Cruz Multi-purpose Cooperative, Santa Cruz, Iloilo, Western Visayas, 5025, Philippines","capacity":null,"hazardTypes":null}},{"type":"Feature","geometry":{"type":"Point","coordinates":[122.6032801,10.8828104]},"properties":{"id":"way/247024443","osmId":247024443,"facilityType":"multi_purpose","name":"Mr. & Mrs. Atanacio Motong Memorial Multi-purpose Court","address":"Mr. & Mrs. Atanacio Motong Memorial Multi-purpose Court, Cabatuan-New Lucena-Banga-Bante Road, Poblacion, Dawis Norte, Dawis, Iloilo, Western Visayas, Philippines","capacity":null,"hazardTypes":null}},{"type":"Feature","geometry":{"type":"Point","coordinates":[122.5370982,10.9857544]},"properties":{"id":"way/247122883","osmId":247122883,"facilityType":"multi_purpose","name":"Multi-Purpose Cooperative","address":"Multi-Purpose Cooperative, F. Tirador, Poblacion, Badiangan, Iloilo, Western Visayas, 5033, Philippines","capacity":null,"hazardTypes":null}},{"type":"Feature","geometry":{"type":"Point","coordinates":[122.5033906,10.9650261]},"properties":{"id":"way/1168220499","osmId":1168220499,"facilityType":"multi_purpose","name":"Barangay Jibolo Multi-Purpose Hall","address":"Barangay Jibolo Multi-Purpose Hall, Old Iloilo-Capiz Road, Aquino Nobleza West, Poblacion, Jibolo, Iloilo, Western Visayas, 5034, Philippines","capacity":null,"hazardTypes":null}},{"type":"Feature","geometry":{"type":"Point","coordinates":[122.6162774,10.9363577]},"properties":{"id":"way/559348967","osmId":559348967,"facilityType":"multi_purpose","name":"Purog Multi-purpose Hall","address":"Purog Multi-purpose Hall, Pototan-Mina-Janiuay Road, Sterling Homes, Lumbo, Iloilo, Western Visayas, 5008, Philippines","capacity":null,"hazardTypes":null}},{"type":"Feature","geometry":{"type":"Point","coordinates":[122.566505,10.9446574]},"properties":{"id":"node/4794834422","osmId":4794834422,"facilityType":"multi_purpose","name":"Brgy. Abat Multi-Purpose Hall","address":"Brgy. Abat Multi-Purpose Hall, Janiuay-Mina-Pototan Road, Mina, Iloilo, Western Visayas, 5033, Philippines","capacity":null,"hazardTypes":null}},{"type":"Feature","geometry":{"type":"Point","coordinates":[122.6077013,10.8196013]},"properties":{"id":"way/247486712","osmId":247486712,"facilityType":"multi_purpose","name":"Zarraga Teachers’ Multi-purpose Cooperative","address":"Zarraga Teachers’ Multi-purpose Cooperative, Real Street, Poblacion Ilaya, Malunang, Zarraga, Iloilo, Western Visayas, 5004, Philippines","capacity":null,"hazardTypes":null}},{"type":"Feature","geometry":{"type":"Point","coordinates":[122.4876288,11.0023152]},"properties":{"id":"way/247922277","osmId":247922277,"facilityType":"multi_purpose","name":"Brgy. Botong. Multi- purpose Hall","address":"Brgy. Botong. Multi- purpose Hall, Old Iloilo-Capiz Road, Patong-patong, Iloilo, Western Visayas, 5042, Philippines","capacity":null,"hazardTypes":null}},{"type":"Feature","geometry":{"type":"Point","coordinates":[122.8520526,11.0387038]},"properties":{"id":"node/7025156987","osmId":7025156987,"facilityType":"multi_purpose","name":"Barbaza Multi - Purpose Cooperative","address":"Barbaza Multi - Purpose Cooperative, Rizal Street, Poblacion, San Lucas, Barotac Viejo, Iloilo, Western Visayas, 5011, Philippines","capacity":null,"hazardTypes":null}},{"type":"Feature","geometry":{"type":"Point","coordinates":[123.8493816,10.431703]},"properties":{"id":"way/620868542","osmId":620868542,"facilityType":"multi_purpose","name":"Taptap Multi-purpose Building","address":"Taptap Multi-purpose Building, Veterans Drive, Kamandagan, Pung-ol Sibugay, Cebu City, Central Visayas, Philippines","capacity":null,"hazardTypes":null}},{"type":"Feature","geometry":{"type":"Point","coordinates":[123.8059505,11.1565638]},"properties":{"id":"way/245782566","osmId":245782566,"facilityType":"multi_purpose","name":"Gabay Multi-Purpose Cooperative","address":"Gabay Multi-Purpose Cooperative, C. Villaceran Street, Poblacion, Santa Fe, Cebu, Central Visayas, Philippines","capacity":null,"hazardTypes":null}},{"type":"Feature","geometry":{"type":"Point","coordinates":[123.8044796,11.1612375]},"properties":{"id":"way/245765964","osmId":245765964,"facilityType":"multi_purpose","name":"Lamac Multi-purpose Cooperative","address":"Lamac Multi-purpose Cooperative, F. Roska Street, Talisay, Santa Fe, Cebu, Central Visayas, Philippines","capacity":null,"hazardTypes":null}},{"type":"Feature","geometry":{"type":"Point","coordinates":[123.7183043,11.1660548]},"properties":{"id":"relation/9054075","osmId":9054075,"facilityType":"multi_purpose","name":"Bantayan Multi-Purpose Gym","address":"Bantayan Multi-Purpose Gym, P. Lozada Street, Suba, Bantayan, Cebu, Central Visayas, 6052, Philippines","capacity":null,"hazardTypes":null}},{"type":"Feature","geometry":{"type":"Point","coordinates":[123.978307,11.0461462]},"properties":{"id":"way/1052608614","osmId":1052608614,"facilityType":"multi_purpose","name":"Multi-Purpose Covered Court","address":"Multi-Purpose Covered Court, Bogo City Hall Road, Bogo, Cebu, Central Visayas, 6010, Philippines","capacity":null,"hazardTypes":null}},{"type":"Feature","geometry":{"type":"Point","coordinates":[124.0141045,10.7232851]},"properties":{"id":"way/163968669","osmId":163968669,"facilityType":"multi_purpose","name":"Catmon Multi purpose Center","address":"Catmon Multi purpose Center, Cebu North Road, Corazon, Catmon, Cebu, Central Visayas, 6006, Philippines","capacity":null,"hazardTypes":null}},{"type":"Feature","geometry":{"type":"Point","coordinates":[124.383057,11.0493022]},"properties":{"id":"way/245518093","osmId":245518093,"facilityType":"multi_purpose","name":"PACCI Multi-Purpose Building","address":"PACCI Multi-Purpose Building, Rizal Street, Drydock, Palompon, 4th District, Leyte, Eastern Visayas, 6538, Philippines","capacity":null,"hazardTypes":null}},{"type":"Feature","geometry":{"type":"Point","coordinates":[124.6039338,11.0056759]},"properties":{"id":"way/245969368","osmId":245969368,"facilityType":"multi_purpose","name":"Alegria Multi-Purpose Hall","address":"Alegria Multi-Purpose Hall, ABC, Alegria, MacArthur, Ormoc, Leyte, Eastern Visayas, 6541, Philippines","capacity":null,"hazardTypes":null}},{"type":"Feature","geometry":{"type":"Point","coordinates":[124.6569496,10.9758207]},"properties":{"id":"way/992975337","osmId":992975337,"facilityType":"multi_purpose","name":"Multi-Purpose Hall","address":"Multi-Purpose Hall, Ormoc-Baybay Road, Danhug, San Antonio, Ormoc, Leyte, Eastern Visayas, 6541, Philippines","capacity":null,"hazardTypes":null}},{"type":"Feature","geometry":{"type":"Point","coordinates":[124.6085049,11.0051827]},"properties":{"id":"node/4346719189","osmId":4346719189,"facilityType":"multi_purpose","name":"Ormoc Plants and Flowers Multi-purpose Coop","address":"Ormoc Plants and Flowers Multi-purpose Coop, Burgos Street, Alegria, MacArthur, Camp Downes, Ormoc, Leyte, Eastern Visayas, 6541, Philippines","capacity":null,"hazardTypes":null}},{"type":"Feature","geometry":{"type":"Point","coordinates":[124.5368779,11.0906429]},"properties":{"id":"node/9552077682","osmId":9552077682,"facilityType":"multi_purpose","name":"Brgy. Bayog Multi-purpose Hall","address":"Brgy. Bayog Multi-purpose Hall, G. Lureñiana Street, Katayum, Sabang Bao, Ormoc, Leyte, Eastern Visayas, 6541, Philippines","capacity":null,"hazardTypes":null}},{"type":"Feature","geometry":{"type":"Point","coordinates":[124.5382898,10.7545394]},"properties":{"id":"way/245941552","osmId":245941552,"facilityType":"multi_purpose","name":"Ponson Island Multi-Purpose Cooperative","address":"Ponson Island Multi-Purpose Cooperative, Borinaga Street, Dapdap, Pilar, Cebu, Central Visayas, 6048, Philippines","capacity":null,"hazardTypes":null}},{"type":"Feature","geometry":{"type":"Point","coordinates":[124.9390342,10.7906699]},"properties":{"id":"way/412352025","osmId":412352025,"facilityType":"multi_purpose","name":"Old Zone I Multi-Purpose Hall","address":"Old Zone I Multi-Purpose Hall, Retucsan Street, Poblacion Zone 1, Santa Cruz, Javier, 5th District, Leyte, Eastern Visayas, 6511, Philippines","capacity":null,"hazardTypes":null}},{"type":"Feature","geometry":{"type":"Point","coordinates":[124.7820529,11.1880523]},"properties":{"id":"way/246694929","osmId":246694929,"facilityType":"multi_purpose","name":"Jaro Leyte Multi-Purpose Cooperative","address":"Jaro Leyte Multi-Purpose Cooperative, Del Carmen Street, District Ⅱ, Poblacion, Kalinawan, Jaro, 2nd District, Leyte, Eastern Visayas, 6527, Philippines","capacity":null,"hazardTypes":null}},{"type":"Feature","geometry":{"type":"Point","coordinates":[124.7427639,10.8504881]},"properties":{"id":"way/359952077","osmId":359952077,"facilityType":"multi_purpose","name":"Church Multi Purpose Hall","address":"Church Multi Purpose Hall, Baybay-Ormoc Road, Mahayag, Albuera, 4th District, Leyte, Eastern Visayas, 6542, Philippines","capacity":null,"hazardTypes":null}},{"type":"Feature","geometry":{"type":"Point","coordinates":[124.9969525,11.2297961]},"properties":{"id":"node/2541972764","osmId":2541972764,"facilityType":"multi_purpose","name":"Multi-Purpose Hall","address":"Multi-Purpose Hall, Ninoy Aquino Avenue, 50A, Youngfield, Tacloban, Eastern Visayas, 6500, Philippines","capacity":null,"hazardTypes":null}},{"type":"Feature","geometry":{"type":"Point","coordinates":[125.0345016,11.0451411]},"properties":{"id":"way/245353339","osmId":245353339,"facilityType":"multi_purpose","name":"Multi-Purpose Hall","address":"Multi-Purpose Hall, Maharlika Highway, Quelao, Bislig, Tolosa, 1st District, Leyte, Eastern Visayas, 6503, Philippines","capacity":null,"hazardTypes":null}},{"type":"Feature","geometry":{"type":"Point","coordinates":[124.9981614,10.7641011]},"properties":{"id":"way/247725368","osmId":247725368,"facilityType":"multi_purpose","name":"Barangay Bunga Multi-purpose Hall","address":"Barangay Bunga Multi-purpose Hall, Maharlika Highway, Bunga, Abuyog, 5th District, Leyte, Eastern Visayas, 6510, Philippines","capacity":null,"hazardTypes":null}},{"type":"Feature","geometry":{"type":"Point","coordinates":[124.9884508,10.7723855]},"properties":{"id":"way/311665913","osmId":311665913,"facilityType":"multi_purpose","name":"Picas Barangay Multi-purpose Building","address":"Picas Barangay Multi-purpose Building, Maharlika Highway, Buñga, Picas Norte, Javier, 5th District, Leyte, Eastern Visayas, 6511, Philippines","capacity":null,"hazardTypes":null}},{"type":"Feature","geometry":{"type":"Point","coordinates":[124.9922231,10.4304693]},"properties":{"id":"way/399493249","osmId":399493249,"facilityType":"multi_purpose","name":"Multi purpose Court","address":"Multi purpose Court, Dagsa Barangay Road, Dagsa, Southern Leyte, Eastern Visayas, Philippines","capacity":null,"hazardTypes":null}},{"type":"Feature","geometry":{"type":"Point","coordinates":[125.0328793,10.9548898]},"properties":{"id":"way/245408000","osmId":245408000,"facilityType":"multi_purpose","name":"Multi-Purpose 1","address":"Multi-Purpose 1, Capitan Fedez Street, Market site, Combis, Dulag, 2nd District, Leyte, Eastern Visayas, 6505, Philippines","capacity":null,"hazardTypes":null}},{"type":"Feature","geometry":{"type":"Point","coordinates":[125.4498855,11.1204136]},"properties":{"id":"node/2653398825","osmId":2653398825,"facilityType":"multi_purpose","name":"Multi-purpose Hall","address":"Multi-purpose Hall, Buenavista-Lawaan Road, Poblacion, Barangay 8, Eastern Samar, Eastern Visayas, 6811, Philippines","capacity":null,"hazardTypes":null}},{"type":"Feature","geometry":{"type":"Point","coordinates":[119.8684899,11.9932984]},"properties":{"id":"way/340030667","osmId":340030667,"facilityType":"multi_purpose","name":"Multi Purpose Hall","address":"Multi Purpose Hall, Rizal Street, Purok 1, Maglalambay, Busuanga, Palawan, Mimaropa, Philippines","capacity":null,"hazardTypes":null}},{"type":"Feature","geometry":{"type":"Point","coordinates":[122.7022213,11.5325857]},"properties":{"id":"way/245924626","osmId":245924626,"facilityType":"multi_purpose","name":"Multi Purpose Hall","address":"Multi Purpose Hall, Roxas Avenue, Ivisan, Capiz, Western Visayas, 5805, Philippines","capacity":null,"hazardTypes":null}},{"type":"Feature","geometry":{"type":"Point","coordinates":[122.6825131,11.5230294]},"properties":{"id":"way/246074675","osmId":246074675,"facilityType":"multi_purpose","name":"Multi Purpose Hall","address":"Multi Purpose Hall, Libot Road, Ivisan, Capiz, Western Visayas, 5805, Philippines","capacity":null,"hazardTypes":null}},{"type":"Feature","geometry":{"type":"Point","coordinates":[122.7443977,11.4948776]},"properties":{"id":"node/5688694796","osmId":5688694796,"facilityType":"multi_purpose","name":"Multi-purpose Hall","address":"Multi-purpose Hall, New Iloilo-Capiz Road, Haya Ivisan, Santa Cruz, Roxas, Capiz, Western Visayas, 5815, Philippines","capacity":null,"hazardTypes":null}},{"type":"Feature","geometry":{"type":"Point","coordinates":[122.3807635,11.7119762]},"properties":{"id":"node/3055033018","osmId":3055033018,"facilityType":"multi_purpose","name":"New Buswang Multi-purpose Hall","address":"New Buswang Multi-purpose Hall, New Buswang Road, Poblacion, Old Buswang, Mobo, Kalibo, Aklan, Western Visayas, 5600, Philippines","capacity":null,"hazardTypes":null}},{"type":"Feature","geometry":{"type":"Point","coordinates":[122.8044469,11.4826989]},"properties":{"id":"way/618750042","osmId":618750042,"facilityType":"multi_purpose","name":"Multi Purpose Hall","address":"Multi Purpose Hall, Roxas City Boundary-Panit-an-Bailan Road, Poblacion Ilaya, Cogon, Pontevedra, Capiz, Western Visayas, 5815, Philippines","capacity":null,"hazardTypes":null}},{"type":"Feature","geometry":{"type":"Point","coordinates":[122.8179868,11.4782828]},"properties":{"id":"way/618689075","osmId":618689075,"facilityType":"multi_purpose","name":"Multi Purpose Hall","address":"Multi Purpose Hall, Jovenil Street, Sublangon, Pontevedra, Capiz, Western Visayas, 5815, Philippines","capacity":null,"hazardTypes":null}},{"type":"Feature","geometry":{"type":"Point","coordinates":[122.8532985,11.4331165]},"properties":{"id":"way/246187375","osmId":246187375,"facilityType":"multi_purpose","name":"Multi Purpose Hall","address":"Multi Purpose Hall, Iloilo East Coast – Capiz Road, EnseNagan, Jolongajog, Pontevedra, Capiz, Western Visayas, Philippines","capacity":null,"hazardTypes":null}},{"type":"Feature","geometry":{"type":"Point","coordinates":[122.815908,11.4855258]},"properties":{"id":"way/246278030","osmId":246278030,"facilityType":"multi_purpose","name":"Multi Purpose Hall","address":"Multi Purpose Hall, Iloilo East Coast – Capiz Road, Agbalo, Bago Chiquito, Pontevedra, Capiz, Western Visayas, 5815, Philippines","capacity":null,"hazardTypes":null}},{"type":"Feature","geometry":{"type":"Point","coordinates":[122.7285697,11.3940919]},"properties":{"id":"way/581377308","osmId":581377308,"facilityType":"multi_purpose","name":"Barangay Agtanguay Multi-Purpose Hall","address":"Barangay Agtanguay Multi-Purpose Hall, through the farms and villages, Dao, Capiz, Western Visayas, 5810, Philippines","capacity":null,"hazardTypes":null}},{"type":"Feature","geometry":{"type":"Point","coordinates":[123.351875,11.6175138]},"properties":{"id":"way/764875807","osmId":764875807,"facilityType":"multi_purpose","name":"Multi Purpose Hall","address":"Multi Purpose Hall, Asluman, Carles, Iloilo, Western Visayas, Philippines","capacity":null,"hazardTypes":null}},{"type":"Feature","geometry":{"type":"Point","coordinates":[123.1328728,11.5735035]},"properties":{"id":"way/470455244","osmId":470455244,"facilityType":"multi_purpose","name":"Multi-Purpose Building","address":"Multi-Purpose Building, F. Ramos Street, Poblacion, Barosbos, Carles, Iloilo, Western Visayas, 5019, Philippines","capacity":null,"hazardTypes":null}},{"type":"Feature","geometry":{"type":"Point","coordinates":[123.263893,11.4592397]},"properties":{"id":"node/5199894625","osmId":5199894625,"facilityType":"multi_purpose","name":"CAMPCO (Caburihan Multi-purpose Cooperative)","address":"CAMPCO (Caburihan Multi-purpose Cooperative), Buaya, Carles, Iloilo, Western Visayas, Philippines","capacity":null,"hazardTypes":null}},{"type":"Feature","geometry":{"type":"Point","coordinates":[124.8852155,11.7760415]},"properties":{"id":"way/326478324","osmId":326478324,"facilityType":"multi_purpose","name":"Samar Multi-Purpose Cooperative","address":"Samar Multi-Purpose Cooperative, Rizal Avenue Extension, Barangay 12, 12, Catbalogan, Samar, Eastern Visayas, 6700, Philippines","capacity":null,"hazardTypes":null}},{"type":"Feature","geometry":{"type":"Point","coordinates":[124.6905641,11.2985113]},